"","Name","Yearround","Handicap","indicator","Lat1","Long1","Lat2","Long2","Lat","Long"
"1","Robert Bendheim Playground","Yes","No",1,40.7902926,-73.9544024,48.8632856,-99.622883,40.7902926,-73.9544024
"2","Conservatory Garden","Yes","Yes",1,40.7937661,-73.9524574,40.7936129,-73.9515972,40.7937661,-73.9524574
"3","Model Boathouse (Kerbs) Cafe at Conservatory Water","Yes","Yes",1,40.7697512,-73.9605925,29.9368369,30.9217914,40.7697512,-73.9605925
"4","Washington Square Park","Yes","No",1,40.730831,-73.997343,42.7312423,-84.5522893,40.730831,-73.997343
"5","Lasker Skating Rink","Yes","No",1,40.79612,-73.954884,NA,NA,40.79612,-73.954884
"6","Merchants Gate","Yes","No",2,43.4333332,-79.7398639,40.7692978,-73.9810471,40.7692978,-73.9810471
"7","North Meadow Recreation Center","Yes","Yes",2,40.2027199,-85.4116236,40.7904585,-73.9597062,40.7904585,-73.9597062
"8","Bethesda Terrace","Yes","No",1,40.773851,-73.970849,NA,NA,40.773851,-73.970849
"9","Central Park Zoo","Yes","No",1,40.767803,-73.971837,35.537612,-97.5745286,40.767803,-73.971837
"10","Dana Discovery Center","Yes","No",2,NA,NA,40.7982157,-73.9523666,40.7982157,-73.9523666
"11","Bryant Park","Yes","No",1,40.753613,-73.98319,29.9069377,30.9042268,40.753613,-73.98319
"12","Tennis House","Yes","No",1,40.789889,-73.961839,NA,NA,40.789889,-73.961839
"13","Ramble Shed","Yes","No",2,32.5426176,-93.6785311,40.7100991,-73.8736068,40.7100991,-73.8736068
"14","The Arsenal","Yes","No",1,40.767644,-73.97126,NA,NA,40.767644,-73.97126
"15","Great Hill","Yes","No",1,40.797011,-73.958974,NA,NA,40.797011,-73.958974
"16","Heckscher House","Yes","No",1,40.699645,-73.156632,NA,NA,40.699645,-73.156632
"17","Wollman Skating Rink","Yes","No",1,40.767767,-73.974498,NA,NA,40.767767,-73.974498
"18","Delacorte Theatre","Yes","Yes",1,40.78029,-73.968843,NA,NA,40.78029,-73.968843
"19","Rockfeller Center Lower Floor","Yes","No",1,40.758871,-73.978656,NA,NA,40.758871,-73.978656
"20","Grand Central Station Public Restroom","Yes","Yes",1,40.752926,-73.977207,40.7752549,-74.020156,40.752926,-73.977207
"21","Carl Schurz Park","Yes","No",1,40.7751302,-73.9436973,40.7756171,-73.9442821,40.7751302,-73.9436973
"22","Tavern on the Green","Yes","No",2,51.1273063,-0.1552554,40.7724388,-73.978741,40.7724388,-73.978741
"23","SAKS Fifth Avenue","Yes","No",2,33.7273312,-85.7915635,40.758045,-73.9769745,40.758045,-73.9769745
"24","Barneys New York","Yes","No",2,NA,NA,42.6569096,-73.7755431,42.6569096,-73.7755431
"25","Old Navy","Yes","No",2,43.8679298,-91.2031002,40.7224829,-73.9995839,40.7224829,-73.9995839
"26","Ancient Playground","Yes","No",1,40.7807557,-73.9616122,40.7372973,-73.9921861,40.7807557,-73.9616122
"27","South Street Seaport Mall","Yes","No",1,40.706995,-74.004355,37.7797643,-122.4153467,40.706995,-74.004355
"28","World Financial Center, Winter Garden","Yes","No",2,28.5652787,-81.5861847,40.7222399,-74.0118717,40.7222399,-74.0118717
"29","Long Island Railroad","Yes","Yes",1,40.730542,-73.869241,NA,NA,40.730542,-73.869241
"30","Washington Square Park Bathrooms","Yes","Yes",1,40.730329,-73.998058,NA,NA,40.730329,-73.998058
"31","Penn Station Public Restroom","Yes","Yes",1,40.750779,-73.993476,NA,NA,40.750779,-73.993476
"32","Public Restroom","Yes","Yes",1,40.742029,-73.98751,NA,NA,40.742029,-73.98751
"33","Prospect Park Bandshell","Yes","Yes",1,40.663471,-73.976615,NA,NA,40.663471,-73.976615
"34","Old Stone House in JJ Byrne park","Yes","Yes",1,40.672997,-73.984577,34.2525642,-85.1692598,40.672997,-73.984577
"35","Bed Bath and Beyond","Yes","No",1,40.740114,-73.994428,39.725618,-104.9796887,40.740114,-73.994428
"36","Bodum","Yes","No",1,40.751527,-74.006399,41.506081,-87.660127,40.751527,-74.006399
"37","McDonalds","Yes","No",1,40.70317,-74.012241,NA,NA,40.70317,-74.012241
"38","Old Navy","Yes","No",1,40.738825,-73.996357,NA,NA,40.738825,-73.996357
"39","St Vincents Hospital","Yes","Yes",2,33.50702,-86.78764,40.634491,-74.1092251,40.634491,-74.1092251
"40","St Vincents Emergency Room Area","Yes","Yes",2,NA,NA,40.6347424,-74.1122795,40.6347424,-74.1122795
"41","Shoprite 2344","Yes","Yes",2,0.3276086,32.6075211,40.6276019,-74.1678203,40.6276019,-74.1678203
"42","Tribeca Bagels","Yes","No",1,40.7162692,-74.0086323,29.9507988,-90.0658676,40.7162692,-74.0086323
"43","Pearl Paint","Yes","No",1,40.719664,-74.002683,29.9506042,-90.0655654,40.719664,-74.002683
"44","Sbarro Pizza and Pasta","Yes","No",1,40.719826,-74.002225,29.9505752,-90.0655196,40.719826,-74.002225
"45","Kings Leather","Yes","No",1,40.719151,-74.00101,29.9505876,-90.0650254,40.719151,-74.00101
"46","Starbucks Coffee","Yes","No",2,51.4816036,-0.0093395,40.718977,-74.002641,40.718977,-74.002641
"47","Teariffic","Yes","No",2,NA,NA,40.7154702,-73.9987687,40.7154702,-73.9987687
"48","Burger King","Yes","No",2,38.070376,27.411275,40.719335,-74.001218,40.719335,-74.001218
"49","Mc Donalds","Yes","No",2,29.6904256,-100.0320273,40.718687,-74.001022,40.718687,-74.001022
"50","Citicorp Center","Yes","No",1,40.758516,-73.969858,41.5744546,-90.5713507,40.758516,-73.969858
"51","Babies R Us","Yes","No",2,39.2108098,-86.3872651,40.7360786,-73.9917058,40.7360786,-73.9917058
"52","Chelsea Market","Yes","No",1,40.742734,-74.006041,NA,NA,40.742734,-74.006041
"53","Times Square McDonalds","Yes","No",1,40.758878,-73.984635,NA,NA,40.758878,-73.984635
"54","Staten Island Ferry","Yes","Yes",1,40.702622,-74.012822,NA,NA,40.702622,-74.012822
"55","Public Atrium ~ 60 Wall St.","Yes","No",1,40.706687,-74.007743,NA,NA,40.706687,-74.007743
"56","Cosmos Service Inc","Yes","No",2,40.707632,-74.012539,40.7073131,-74.012587,40.7073131,-74.012587
"57","Burger King","Yes","No",2,38.070376,27.411275,40.7087437,-74.0057398,40.7087437,-74.0057398
"58","New Amsterdam Branch Library","Yes","Yes",1,40.8511337,-73.9290202,40.7136425,-74.0079468,40.8511337,-73.9290202
"59","Franklin Square","Yes","No",1,40.7073244,-73.6759635,40.7177279,-73.9962547,40.7073244,-73.6759635
"60","Bloomingdales Soho","Yes","No",1,40.722384,-73.999144,NA,NA,40.722384,-73.999144
"61","Macys Department Store","Yes","No",1,40.750962,-73.989526,NA,NA,40.750962,-73.989526
"62","Port Authority Bus Terminal","Yes","Yes",1,40.757414,-73.989772,NA,NA,40.757414,-73.989772
"63","Herald Square Park","Yes","Yes",2,39.975322,-85.992374,41.1115472,-73.8583806,41.1115472,-73.8583806
"64","Greeley Square Park","Yes","Yes",1,40.7486977,-73.9883319,41.1115472,-73.8583806,40.7486977,-73.9883319
"65","Lincoln Center for Performing Arts","Yes","No",1,40.773844,-73.983616,41.7764299,-87.626745,40.773844,-73.983616
"66","PROSPECT PARK playground","Yes","Yes",1,41.516443,-78.2136126,NA,NA,41.516443,-78.2136126
"67","Brooklyn Public Library central branch","Yes","Yes",2,40.6781784,-73.9441579,40.6730861,-73.9694272,40.6730861,-73.9694272
"68","Underhill Playground","Yes","No",1,40.676715,-73.965699,NA,NA,40.676715,-73.965699
"69","Saks Fifth Avenue","Yes","Yes",1,40.758096,-73.976969,NA,NA,40.758096,-73.976969
"70","Bloomingdales","Yes","Yes",2,12.8409319,77.6516957,40.7619986,-73.9656927,40.7619986,-73.9656927
"71","Penn Station~ New Jersey Transit","Yes","Yes",2,NA,NA,40.7507431,-73.9921407,40.7507431,-73.9921407
"72","Public Restroom","Yes","No",2,38.0685555,-122.8051225,40.6312978,-74.0388353,40.6312978,-74.0388353
"73","The Soltaire","Yes","Yes",2,58.0263858,-3.847595,40.7165818,-74.0161324,40.7165818,-74.0161324
"74","Chelsea Piers Golf Club","Yes","No",2,NA,NA,40.7437031,-74.008656,40.7437031,-74.008656
"75","Playground","Yes","No",1,40.712896,-73.988503,35.0131472,-90.7226097,40.712896,-73.988503
"76","Playground","Yes","No",1,40.710562,-73.994091,34.3186252,-77.7693794,40.710562,-73.994091
"77","Playground","Yes","No",1,40.711498,-73.996774,40.7096804,-73.997115,40.711498,-73.996774
"78","Wendys","Yes","Yes",1,40.521419,-74.216746,NA,NA,40.521419,-74.216746
"79","Roosevelt Island Tramway","Yes","No",1,40.762991,-73.949399,NA,NA,40.762991,-73.949399
"80","NY Waterway Ferry Terminal","Yes","No",1,40.7274499,-74.0308856,30.5247591,-82.942473,40.7274499,-74.0308856
"81","New York Public Library Schwarzman Building","Yes","Yes",1,40.7127837,-74.0059413,40.7465393,-73.9859729,40.7127837,-74.0059413
"82","Time Warner","Yes","No",2,34.8010769,-76.8776499,40.7680441,-73.9823722,40.7680441,-73.9823722
"83","Great Kills Park Parking Lot","Yes","No",1,40.5543273,-74.156292,42.4715489,-78.9354506,40.5543273,-74.156292
"84","Home Depot","Yes","No",1,40.581776,-73.988563,NA,NA,40.581776,-73.988563
"85","Pathmark","Yes","No",1,40.582988,-73.984933,NA,NA,40.582988,-73.984933
"86","Loehmanns Department Store","Yes","No",1,40.584251,-73.94673,NA,NA,40.584251,-73.94673
"87","Battery Park","Yes","No",1,40.7032775,-74.0170279,41.3562081,-74.6803501,40.7032775,-74.0170279
"88","Castle Clinton","Yes","Yes",1,40.7034401,-74.0168023,40.7051613,-74.0159706,40.7034401,-74.0168023
"89","Public Toilets","Yes","No",1,40.748886,-74.008691,NA,NA,40.748886,-74.008691
"90","Inside Playground at Union Sq.","Yes","Yes",1,40.735266,-73.990277,29.4827971,-98.3289085,40.735266,-73.990277
"91","Conservatory Pond ~ Central Park close to 74th St and 5th ave","Yes","No",1,40.773965,-73.966555,NA,NA,40.773965,-73.966555
"92","Pier 84 Comfort Station","Yes","Yes",1,40.763445,-73.999861,NA,NA,40.763445,-73.999861
"93","Riverside Branch New York Public Library","Yes","Yes",1,40.774468,-73.984442,NA,NA,40.774468,-73.984442
"94","Playground 174","Yes","Not Available",1,40.834349,-73.877787,40.7633699,-73.6412419,40.834349,-73.877787
"95","Bronx River Parkway","Yes","Not Available",1,40.9476645,-73.8345485,40.8370495,-73.8654295,40.9476645,-73.8345485
"96","Abigail Playground","Yes","Not Available",1,40.8173278,-73.9048429,40.3055318,-74.0687506,40.8173278,-73.9048429
"97","Allerton Playground","Yes","Not Available",1,40.865851,-73.850576,NA,NA,40.865851,-73.850576
"98","Bailey Playground","Yes","Not Available",1,40.8819128,-73.9001578,39.1729522,-90.7877677,40.8819128,-73.9001578
"99","Behagen Playground","Yes","Not Available",1,40.8253722,-73.9012602,NA,NA,40.8253722,-73.9012602
"100","Belmont Playground","Yes","Not Available",1,40.8502451,-73.8876637,18.0244065,-76.8091508,40.8502451,-73.8876637
"101","Bronx River Parkway","Yes","Not Available",1,40.866736,-73.878706,40.864696,-73.871816,40.866736,-73.878706
"102","Bufano Park","Yes","Not Available",1,40.8381348,-73.8310627,NA,NA,40.8381348,-73.8310627
"103","Captain Rivera Playground","Yes","Not Available",1,40.8178344,-73.906772,39.7189646,-104.9269401,40.8178344,-73.906772
"104","Castle Hill Playground","Yes","Not Available",1,40.8234124,-73.8509116,NA,NA,40.8234124,-73.8509116
"106","Cedar Playground","Yes","Not Available",1,40.855062,-73.917406,NA,NA,40.855062,-73.917406
"107","Ciccarone Park Playground","Yes","Not Available",1,40.855959,-73.886632,NA,NA,40.855959,-73.886632
"108","Claremont Park Playground","Yes","No",1,40.838671,-73.907814,40.471443,-93.8654043,40.838671,-73.907814
"109","Colucci Playground","Yes","Not Available",1,40.8528355,-73.8347386,NA,NA,40.8528355,-73.8347386
"110","Crotona Park (Martin Van Buren Playground)","Yes","No",1,40.8353103,-73.8958401,39.1309856,17.0067031,40.8353103,-73.8958401
"111","Crotona Park (Playground of the Stars)","Yes","No",1,40.835697,-73.901235,43.2880277,-76.1482738,40.835697,-73.901235
"112","Crotona Park (Pool House)","Yes","Yes",1,40.839929,-73.897816,NA,NA,40.839929,-73.897816
"113","Crotona Park (Environmental Center)","Yes","No",1,40.839858,-73.890078,NA,NA,40.839858,-73.890078
"114","Devoe Park","Yes","No",1,40.863695,-73.9049,NA,NA,40.863695,-73.9049
"115","Drew Playground","Yes","Not Available",1,40.833137,-73.90334,NA,NA,40.833137,-73.90334
"116","Eastchester Playground","Yes","Not Available",1,40.8698953,-73.8527494,NA,NA,40.8698953,-73.8527494
"117","Flynn Playground","Yes","Not Available",1,40.820962,-73.91183,NA,NA,40.820962,-73.91183
"118","Franz Sigel Park","Yes","Not Available",1,40.8231019,-73.9253274,NA,NA,40.8231019,-73.9253274
"119","Grove Hill Playground","Yes","Not Available",1,40.82001,-73.908982,NA,NA,40.82001,-73.908982
"120","Gun Hill Playground","Yes","Not Available",1,40.874779,-73.865615,NA,NA,40.874779,-73.865615
"121","Haffen Park","Yes","No",1,40.8736702,-73.8393333,NA,NA,40.8736702,-73.8393333
"122","Harris Park","Yes","Not Available",1,40.875955,-73.892151,NA,NA,40.875955,-73.892151
"123","Havemeyer","Yes","Not Available",1,40.829822,-73.847859,NA,NA,40.829822,-73.847859
"124","Henry Hudson Park","Yes","Not Available",1,40.880901,-73.920217,NA,NA,40.880901,-73.920217
"125","Horseshoe Playground","Yes","Not Available",1,40.8240128,-73.8976774,43.6358402,-79.425958,40.8240128,-73.8976774
"126","Hunts Point Playground","Yes","Not Available",1,40.8142264,-73.8858262,40.8144125,-73.8868227,40.8142264,-73.8858262
"127","Julio Barballo Field","Yes","Not Available",1,40.81564,-73.889112,33.5391114,-92.8469446,40.81564,-73.889112
"128","Loreto Park Playground","Yes","Not Available",1,40.849109,-73.852004,40.8522006,-73.8507279,40.849109,-73.852004
"129","Lozada Playground","Yes","Not Available",1,40.8078754,-73.9250518,NA,NA,40.8078754,-73.9250518
"130","Macombs Dam Park","Yes","Not Available",1,40.8275468,-73.92977,40.0221122,-86.1021167,40.8275468,-73.92977
"131","Magenta Playground","Yes","Not Available",1,40.8736833,-73.8679103,40.873235,-73.868208,40.8736833,-73.8679103
"132","Mapes Pool","Yes","Not Available",1,40.846578,-73.886281,44.676126,-84.2319123,40.846578,-73.886281
"133","Marble Hill Playground","Yes","Not Available",1,40.877523,-73.9082418,38.833984,-90.838313,40.877523,-73.9082418
"134","Mazzei Playground","Yes","Not Available",1,40.8626762,-73.8582626,40.8629385,-73.8520399,40.8626762,-73.8582626
"135","Millbrook Playground","Yes","Not Available",1,40.804398,-73.916665,NA,NA,40.804398,-73.916665
"136","Mosholu Playground","Yes","Not Available",1,40.872292,-73.882763,NA,NA,40.872292,-73.882763
"137","Mott Playground","Yes","Not Available",1,40.831279,-73.914802,NA,NA,40.831279,-73.914802
"138","Mullaly Park (Skate Building)","Yes","Not Available",1,40.831783,-73.92406,NA,NA,40.831783,-73.92406
"139","Nelson Playground","Yes","Not Available",1,40.8348988,-73.9269807,NA,NA,40.8348988,-73.9269807
"140","Noble Playground","Yes","Not Available",1,40.8372519,-73.8722287,NA,NA,40.8372519,-73.8722287
"141","Orchard Beach Pavilion","Yes","Not Available",1,42.976524,-77.976095,40.8524136,-73.8263227,42.976524,-77.976095
"142","Owen Dolen Recreation Center","Yes","No",1,40.840698,-73.842504,41.0144987,-73.7118056,40.840698,-73.842504
"143","P.O. Serrano Playground","Yes","Not Available",1,40.823453,-73.850965,NA,NA,40.823453,-73.850965
"144","Parkside Playground","Yes","Not Available",1,40.866094,-73.868732,NA,NA,40.866094,-73.868732
"145","Pelham Bay Park (Bruckner Boulevard and Wilkinson Avenue)","Yes","Not Available",1,40.851686,-73.824701,NA,NA,40.851686,-73.824701
"146","Pelham Bay Park (Hunter Island Picnic Area)","Yes","Not Available",1,40.868446,-73.79267,40.8524136,-73.8263227,40.868446,-73.79267
"147","Pelham Bay Park (Playground for All Children)","Yes","Yes",1,40.848379,-73.825435,40.8252582,-73.8663659,40.848379,-73.825435
"148","Pelham South Park Headquarters","Yes","Not Available",1,40.850617,-73.819707,40.8524136,-73.8263227,40.850617,-73.819707
"149","Quarry Ballfields","Yes","Not Available",1,40.8510258,-73.890971,NA,NA,40.8510258,-73.890971
"150","Rainey Park","Yes","Not Available",1,40.766062,-73.940694,NA,NA,40.766062,-73.940694
"151","Randall Playground","Yes","Not Available",1,40.819203,-73.849555,NA,NA,40.819203,-73.849555
"152","Rev. Polite Playground","Yes","Not Available",1,40.827119,-73.896786,NA,NA,40.827119,-73.896786
"153","Richman (Echo) Park Playground","Yes","Not Available",1,40.849475,-73.901681,NA,NA,40.849475,-73.901681
"154","Rienzi Playground","Yes","Not Available",1,40.887659,-73.858673,NA,NA,40.887659,-73.858673
"155","Riverbend Playground","Yes","Not Available",1,40.8718815,-73.9059453,NA,NA,40.8718815,-73.9059453
"156","Rose Hill Park","Yes","Not Available",2,51.4901036,-0.9642497,40.8444372,-73.9026954,40.8444372,-73.9026954
"157","Seton Park","Yes","Not Available",1,40.885941,-73.9165092,38.8875829,-77.0127201,40.885941,-73.9165092
"158","Slattery Playground","Yes","Not Available",1,40.857314,-73.8983205,NA,NA,40.857314,-73.8983205
"159","Soundview Park Playground","Yes","Not Available",1,40.8222095,-73.8597328,NA,NA,40.8222095,-73.8597328
"160","Space Time Playground","Yes","Not Available",1,40.871825,-73.905859,NA,NA,40.871825,-73.905859
"161","Stars & Stripes Playground","Yes","Not Available",1,40.885188,-73.839345,NA,NA,40.885188,-73.839345
"162","Tiffany Playground","Yes","Not Available",1,40.824701,-73.894306,NA,NA,40.824701,-73.894306
"163","Tremont Park Playground","Yes","Not Available",1,40.845665,-73.895511,43.1905,-91.8592758,40.845665,-73.895511
"164","Van Cortlandt Park (Allen Shandler Recreation Area)","Yes","No",2,NA,NA,40.890385,-73.896044,40.890385,-73.896044
"165","Van Cortlandt Park (Classic Playground)","Yes","No",2,NA,NA,40.8849265,-73.8907719,40.8849265,-73.8907719
"166","Van Cortlandt Park (Indian Field)","Yes","Yes",2,NA,NA,40.89651,-73.878271,40.89651,-73.878271
"167","Van Cortlandt Park (Nature Center)","Yes","No",2,NA,NA,40.891135,-73.893921,40.891135,-73.893921
"168","Van Cortlandt Park (Pool Building)","Yes","No",2,NA,NA,40.8895802,-73.8999318,40.8895802,-73.8999318
"169","Van Cortlandt Park (Stables Area)","Yes","No",2,NA,NA,40.9010541,-73.8969283,40.9010541,-73.8969283
"170","Van Cortlandt Park (Stadium)","Yes","No",2,NA,NA,40.888181,-73.897402,40.888181,-73.897402
"171","Van Cortlandt par (UC Pool Headquarters)","Yes","No",2,NA,NA,40.8899,-73.895857,40.8899,-73.895857
"172","Van Cortlandt Park (Woodlawn Playground)","Yes","No",2,NA,NA,40.900074,-73.872186,40.900074,-73.872186
"173","Vidalia Park","Yes","Not Available",1,40.8442589,-73.8811989,52.1790819,-1.2987189,40.8442589,-73.8811989
"174","Vinmont Veteran Playground","Yes","Not Available",1,40.902254,-73.904806,NA,NA,40.902254,-73.904806
"175","Virginia Playground","Yes","Not Available",1,40.8342007,-73.8622136,NA,NA,40.8342007,-73.8622136
"176","Wakefield Playground","Yes","Not Available",1,40.9018109,-73.854679,NA,NA,40.9018109,-73.854679
"177","Watson Gleason Playground","Yes","Not Available",1,40.8284567,-73.868921,28.6160748,-80.8213475,40.8284567,-73.868921
"178","Webster Playground","Yes","Not Available",1,40.8595438,-73.8929003,NA,NA,40.8595438,-73.8929003
"179","Zimmerman Playground","Yes","Not Available",1,40.866113,-73.868598,NA,NA,40.866113,-73.868598
"180","Abe Lincoln Playground","Yes","Not Available",1,40.8123146,-73.937268,43.0730517,-89.4012302,40.8123146,-73.937268
"181","Alexander Hamilton Playground","Yes","Not Available",1,40.8230268,-73.9513202,41.2795964,-82.2451306,40.8230268,-73.9513202
"182","Alfred E. Smith Park","Yes","Not Available",1,42.653986,-73.75993,43.0730517,-89.4012302,42.653986,-73.75993
"183","Alice Kornegay Triangle","Yes","No",1,40.806552,-73.935558,40.92844,-81.1153853,40.806552,-73.935558
"184","Annunciation Park","Yes","Not Available",2,38.5152427,-90.309449,40.8184009,-73.9508602,40.8184009,-73.9508602
"185","Asser Levy Playground","Yes","No",1,40.736139,-73.975635,NA,NA,40.736139,-73.975635
"186","Audoubon Playground","Yes","No",1,40.842176,-73.939111,NA,NA,40.842176,-73.939111
"187","Augustus St. Gaudens","Yes","Not Available",1,40.735597,-73.982178,NA,NA,40.735597,-73.982178
"188","Bendheim Playground","Yes","Not Available",1,40.790333,-73.954424,NA,NA,40.790333,-73.954424
"189","Bennett Park","Yes","Not Available",1,40.852819,-73.938048,40.1390398,-75.2100952,40.852819,-73.938048
"190","Bloomingdale Playground","Yes","Not Available",1,40.7993583,-73.9662115,40.7987854,-73.9658493,40.7993583,-73.9662115
"191","Carl Schurz Promenade","Yes","Not Available",1,40.775171,-73.943654,NA,NA,40.775171,-73.943654
"192","Carmansville Playground","Yes","Not Available",1,40.82927,-73.944162,NA,NA,40.82927,-73.944162
"193","Chelsea Park","Yes","Not Available",1,40.750145,-74.00128,NA,NA,40.750145,-74.00128
"194","Chelsea Recreation Center","Yes","Not Available",1,40.748305,-74.002032,NA,NA,40.748305,-74.002032
"195","Cherry Tree Washington Playground","Yes","Not Available",1,40.787135,-73.947274,NA,NA,40.787135,-73.947274
"196","Col. Charles Young Playground","Yes","No",1,40.8195904,-73.9361885,41.628064,-87.6560306,40.8195904,-73.9361885
"197","Columbus Park","Yes","Yes",1,40.715125,-73.999964,NA,NA,40.715125,-73.999964
"198","De Witt Clinton Park","Yes","Not Available",1,40.768136,-73.9943891,NA,NA,40.768136,-73.9943891
"199","Downing Street Playground","Yes","Not Available",1,40.730252,-74.002189,NA,NA,40.730252,-74.002189
"200","Dry Dock Playground","Yes","Not Available",1,40.725342,-73.975459,NA,NA,40.725342,-73.975459
"201","Dyckman House Museum","Yes","No",1,40.867367,-73.922812,41.1115472,-73.8583806,40.867367,-73.922812
"202","East River Park (10th Street)","Yes","Not Available",1,40.723857,-73.972827,40.142144,-76.964023,40.723857,-73.972827
"203","East River Park (Tennis Courts)","Yes","Not Available",1,40.719909,-73.973635,NA,NA,40.719909,-73.973635
"204","East River Park (Track Building)","Yes","No",1,40.721694,-73.973424,43.9719586,-92.0560338,40.721694,-73.973424
"205","East River Playround","Yes","No",1,40.789187,-73.9379,NA,NA,40.789187,-73.9379
"206","Fort Tryon Park (Anne Loftus Playground)","Yes","Not Available",1,40.862044,-73.932074,41.1115472,-73.8583806,40.862044,-73.932074
"207","Fort Tryon Park (Caf_)","Yes","No",1,40.863804,-73.932549,48.8632856,-99.622883,40.863804,-73.932549
"208","Fort Tryon Park (The Cloisters)","Yes","Not Available",1,40.864855,-73.931717,40.8158821,-73.9623705,40.864855,-73.931717
"209","Fort Washington Park (Lily Brown Playground)","Yes","Not Available",1,40.838819,-73.946638,35.5888502,-82.5700538,40.838819,-73.946638
"210","Frederick Douglass Playground","Yes","Not Available",1,40.7969119,-73.9677592,40.7741609,-73.9859188,40.7969119,-73.9677592
"211","Frederick E. Samuel Playground","Yes","Not Available",1,40.817202,-73.9391049,43.0928727,-75.6546064,40.817202,-73.9391049
"212","Frederick Johnson Park","Yes","No",1,40.824812,-73.935556,37.7891138,-89.5307414,40.824812,-73.935556
"213","General Douglas MacArthur Park","Yes","Not Available",1,40.587016,-74.100084,25.8671713,-80.2711956,40.587016,-74.100084
"214","Hamilton Fish Park (Recreation Center)","Yes","Not Available",1,40.720046,-73.981532,29.7604267,-95.3698028,40.720046,-73.981532
"215","Hansborough Recreation Center","Yes","No",1,40.812788,-73.939211,35.3343358,-97.5128357,40.812788,-73.939211
"216","Happy Warrior Playground","Yes","No",1,40.79694,-73.967784,44.8263946,-93.3188017,40.79694,-73.967784
"217","Highbridge Park (Quisqueya Playground)","Yes","Yes",1,40.843436,-73.933201,40.4554989,-94.1199107,40.843436,-73.933201
"218","Highbridge Park (Recreation Center)","Yes","Not Available",1,40.6419877,-74.9132045,NA,NA,40.6419877,-74.9132045
"219","Highbridge Park (Wallenberg Playground)","Yes","Yes",1,40.852714,-73.926915,NA,NA,40.852714,-73.926915
"220","Holcombe Rucker","Yes","No",1,40.832725,-73.939137,40.8280552,-73.9346918,40.832725,-73.939137
"221","Howard Bennett Playground","Yes","Not Available",1,40.8136794,-73.9387312,NA,NA,40.8136794,-73.9387312
"222","Inwoood Hill Park (Nature Center)","Yes","No",1,40.871509,-73.925709,NA,NA,40.871509,-73.925709
"223","Inwood Hill Park (Payson Playground)","Yes","No",1,40.8677145,-73.9212019,34.2308684,-111.3251355,40.8677145,-73.9212019
"224","Inwood Hill Park (Tennis Courts)","Yes","No",1,40.869927,-73.922422,37.2905087,-76.7298653,40.869927,-73.922422
"225","J. Hood Wright Park","Yes","Yes",1,40.846319,-73.941364,NA,NA,40.846319,-73.941364
"226","Jackie Robinson Park","Yes","No",1,40.824236,-73.942139,NA,NA,40.824236,-73.942139
"227","Jackie Robinson Park (Playground 152 CLII)","Yes","No",1,40.827962,-73.93994,NA,NA,40.827962,-73.93994
"228","Jackie Robinson Park (Rec Center)","Yes","Not Available",1,40.824274,-73.942122,NA,NA,40.824274,-73.942122
"229","Jacob Schiff Playground","Yes","No",2,NA,NA,40.8174777,-73.946736,40.8174777,-73.946736
"230","John Jay Park & Pool","Yes","No",1,40.7693053,-73.9493916,38.979234,-94.439631,40.7693053,-73.9493916
"231","James J. Walker Park (Carmine Rec Center)","Yes","No",1,40.729758,-74.006272,NA,NA,40.729758,-74.006272
"232","Little Flower Playground","Yes","Yes",1,40.7123939,-73.9884206,43.0730517,-89.4012302,40.7123939,-73.9884206
"233","Marcus Garvey Park (Pelham Fritz Recreation Center)","Yes","No",1,40.805042,-73.944831,40.8050093,-73.9448633,40.805042,-73.944831
"234","Marcus Garvey Park (pool)","Yes","Not Available",1,40.80518,-73.943365,43.6728093,-79.4052216,40.80518,-73.943365
"235","Martin Luther King Houses","Yes","No",1,40.6968447,-73.949496,38.6727119,-90.2934383,40.6968447,-73.949496
"236","May Matthews Playground","Yes","No",1,40.756617,-73.983303,29.8331559,31.3529387,40.756617,-73.983303
"237","McCaffrey Playground","Yes","No",1,40.758985,-73.9913589,38.431024,-86.941794,40.758985,-73.9913589
"238","McKinley Playground","Yes","No",1,40.724024,-73.98503,47.6532648,-117.3469896,40.724024,-73.98503
"239","Morningside Park","Yes","Yes",1,40.805135,-73.959095,41.6661463,-87.8912235,40.805135,-73.959095
"240","Morningside Park","Yes","Not Available",1,40.806028,-73.959063,NA,NA,40.806028,-73.959063
"241","Morningside Playground","Yes","No",1,40.806334,-73.957754,41.4675749,-81.7687675,40.806334,-73.957754
"242","Msgnr. Kett","Yes","No",1,40.863132,-73.920639,33.8456017,-118.2992222,40.863132,-73.920639
"243","Orville & Wilbur Playground","Yes","No",1,40.83168,-73.941769,NA,NA,40.83168,-73.941769
"244","Playground 70","Yes","Yes",1,40.704988,-73.881494,NA,NA,40.704988,-73.881494
"245","Playground 96 (XCVI)","Yes","No",1,40.785684,-73.950114,NA,NA,40.785684,-73.950114
"246","PS 155 Playground","Yes","Not Available",1,40.798027,-73.936976,NA,NA,40.798027,-73.936976
"247","Renaissance Playground","Yes","No",1,40.822447,-73.943055,29.839422,31.3384822,40.822447,-73.943055
"248","Robert Moses Playground","Yes","No",1,40.748006,-73.9691,-10.3345449,-48.2997164,40.748006,-73.9691
"249","St Nicholas Park South","Yes","No",1,40.813709,-73.950944,43.6118917,-112.1298471,40.813709,-73.950944
"250","St Nicholas Park","Yes","No",1,40.820159,-73.946988,38.8257134,-95.8199323,40.820159,-73.946988
"251","St Nicholas Park (Arlington Edinboro Playground)","Yes","No",1,40.821214,-73.947283,40.5150292,-93.99842,40.821214,-73.947283
"252","St Vartan Park","Yes","Yes",1,40.7449676,-73.9736364,29.8894662,31.3071263,40.7449676,-73.9736364
"253","Stanley Isaacs","Yes","Yes",1,40.782809,-73.944604,36.0234368,-95.8724539,40.782809,-73.944604
"254","Tecumseh Playground","Yes","No",1,40.7817253,-73.978687,41.7536803,-87.6872304,40.7817253,-73.978687
"255","Union Square Park","Yes","Not Available",1,40.736292,-73.989566,NA,NA,40.736292,-73.989566
"256","Vesuvio Playground","Yes","Yes",1,40.725367,-74.0025609,36.4214066,-116.4221616,40.725367,-74.0025609
"257","Wagner Pool","Yes","No",1,40.801992,-73.933208,32.9744973,-91.7396503,40.801992,-73.933208
"258","West 59th St Recreation Center & Pool","Yes","Not Available",1,40.771447,-73.988567,NA,NA,40.771447,-73.988567
"259","Brevoort Playground","Yes","Not Available",1,40.6805498,-73.9225717,40.634696,-73.9188247,40.6805498,-73.9225717
"260","Brownsville Playground","Yes","No",2,25.8159583,-80.2299094,40.6578786,-73.896138,40.6578786,-73.896138
"261","Bushwick Inlet Park","Yes","Not Available",1,40.7222436,-73.9615144,NA,NA,40.7222436,-73.9615144
"262","Bushwick Playground & Pool","Yes","Not Available",1,40.7018076,-73.9394723,40.7674987,-73.833079,40.7018076,-73.9394723
"263","Cadman Plaza & Brooklyn War Memorial","Yes","No",1,40.6982776,-73.9914896,NA,NA,40.6982776,-73.9914896
"264","Century Playground","Yes","Not Available",1,40.5767757,-73.970055,40.5775615,-73.961412,40.5767757,-73.970055
"265","Chester Playground","Yes","No",1,40.6687403,-73.9118244,36.2198886,-115.1881888,40.6687403,-73.9118244
"266","City Line Park","Yes","No",1,40.679606,-73.874736,41.4036007,-95.0138776,40.679606,-73.874736
"267","Coney Island","Yes","Yes",1,40.573527,-73.970744,39.985252,-104.8202615,40.573527,-73.970744
"268","Coney Island Beach","Yes","No",1,40.5721302,-73.9793298,NA,NA,40.5721302,-73.9793298
"269","Cooper Park","Yes","Not Available",2,40.700424,-89.5385254,40.714593,-73.938755,40.714593,-73.938755
"270","Cypress Hills Park","Yes","No",1,40.670334,-73.871688,31.8970099,-92.2413776,40.670334,-73.871688
"271","Digilio Playground","Yes","No",2,NA,NA,40.6235909,-73.9758061,40.6235909,-73.9758061
"272","Dimattina Playground","Yes","No",1,40.6803115,-74.0022113,31.184905,-93.0159912,40.6803115,-74.0022113
"273","Dr. Martin Luther King Jr. Park","Yes","No",1,40.667555,-73.890647,NA,NA,40.667555,-73.890647
"274","Dr. Richard Greene Playground","Yes","No",1,40.712986,-73.987595,NA,NA,40.712986,-73.987595
"275","Dyker Beach Park","Yes","No",1,40.6120808,-74.0140275,NA,NA,40.6120808,-74.0140275
"276","Edmonds Playground","Yes","No",1,40.6893545,-73.9714325,41.9294736,-88.7503647,40.6893545,-73.9714325
"277","Ethan Allen Playground","Yes","Not Available",1,40.6557721,-73.8870206,38.9855357,-74.8226626,40.6557721,-73.8870206
"278","Fermi Playground","Yes","No",1,40.7004831,-73.9285422,NA,NA,40.7004831,-73.9285422
"279","Fox Playground","Yes","Yes",1,40.6325221,-73.9240414,-10.3214578,-48.3234738,40.6325221,-73.9240414
"280","Fulton Park","Yes","No",1,40.679807,-73.932395,40.1905499,-74.7805328,40.679807,-73.932395
"281","Galapo Playground","Yes","No",1,40.5979212,-73.9467281,40.6081026,-73.9481894,40.5979212,-73.9467281
"282","Garibaldi Playground","Yes","Not Available",1,40.6090667,-74.0001737,13.7873829,100.6456852,40.6090667,-74.0001737
"283","Greenwood Playground","Yes","Not Available",1,40.6502804,-73.9764294,40.6094454,-74.0285434,40.6502804,-73.9764294
"284","Hamilton-Metz Field","Yes","No",2,41.6148149,-84.8840446,40.6626057,-73.9467655,40.6626057,-73.9467655
"285","Hattie Carthan Playground","Yes","No",1,40.6857428,-73.9452692,35.6885097,-105.9352118,40.6857428,-73.9452692
"286","Heckscher Playground","Yes","Yes",1,40.7684844,-73.9772017,NA,NA,40.7684844,-73.9772017
"287","Herbert Von King Park","Yes","Yes",1,40.689612,-73.946732,NA,NA,40.689612,-73.946732
"288","Herman Dolgon Playground","Yes","No",1,40.5982571,-73.9398397,38.5656096,-97.9590939,40.5982571,-73.9398397
"289","J.J. Byrne Memorial Park","Yes","No",1,40.8627738,-73.3255504,26.1616275,32.7080971,40.8627738,-73.3255504
"290","Jackie Robinson Playground","Yes","No",1,40.6656832,-73.9593103,40.6643685,-73.9560187,40.6656832,-73.9593103
"291","Jesse Owens Playground","Yes","Not Available",1,40.6912345,-73.9324918,40.6132391,-74.0301958,40.6912345,-73.9324918
"292","John Paul Jones Park","Yes","Not Available",1,40.6110485,-74.033835,NA,NA,40.6110485,-74.033835
"293","Kaiser Park","Yes","No",1,40.5789776,-73.9970482,NA,NA,40.5789776,-73.9970482
"294","Kennedy King Playground","Yes","No",1,40.6585484,-73.9222043,41.4599879,-81.6214291,40.6585484,-73.9222043
"295","Lincoln Terrace Park","Yes","No",1,40.667319,-73.926355,NA,NA,40.667319,-73.926355
"296","Lindower Park","Yes","Not Available",1,40.6123076,-73.9113651,44.1024575,-85.1474375,40.6123076,-73.9113651
"297","Maria Hernandez Park","Yes","No",1,40.7031595,-73.9238951,NA,NA,40.7031595,-73.9238951
"298","Marine Park","Yes","No",1,40.5954615,-73.9212858,NA,NA,40.5954615,-73.9212858
"299","Marion-Hopkinson Playground","Yes","No",2,40.681718,-73.913571,40.6692495,-73.9135787,40.6692495,-73.9135787
"300","Martinez Playground","Yes","No",1,40.7091573,-73.9439381,40.708466,-73.943466,40.7091573,-73.9439381
"301","McCarren Park","Yes","No",1,40.7213441,-73.9526361,NA,NA,40.7213441,-73.9526361
"302","McLaughlin Park","Yes","No",1,40.6963853,-73.986125,NA,NA,40.6963853,-73.986125
"303","Mellet Playground","Yes","No",1,40.5969589,-73.9573817,29.840364,31.3375167,40.5969589,-73.9573817
"304","Metropolitan Pool","Yes","No",1,40.714993,-73.960328,33.780065,-117.9039335,40.714993,-73.960328
"305","Mt. Prospect Park","Yes","No",1,40.671778,-73.966774,40.7625797,-73.5337516,40.671778,-73.966774
"306","Newport Playground","Yes","No",1,40.660673,-73.903993,NA,NA,40.660673,-73.903993
"307","Nostrand Playground","Yes","No",1,40.62297,-73.94641,NA,NA,40.62297,-73.94641
"308","Ocean Hill Playground","Yes","No",1,40.6744138,-73.9121896,40.885978,-74.555825,40.6744138,-73.9121896
"309","Oracle Playground","Yes","No",1,40.6939264,-73.9715243,39.0031656,-76.97192,40.6939264,-73.9715243
"310","Osborn Playground","Yes","No",1,40.656026,-73.905951,40.6578786,-73.896138,40.656026,-73.905951
"311","Paerdegat Park","Yes","No",1,40.6382216,-73.9380028,40.678658,-73.723344,40.6382216,-73.9380028
"312","Rappaport Playground","Yes","No",1,40.650273,-73.976452,NA,NA,40.650273,-73.976452
"313","Red Hook Park (Coffey Park Playground","Yes","No",1,40.6772802,-74.0094471,52.6339568,-1.152479,40.6772802,-74.0094471
"314","Red Hook Park (Recreation Center)","Yes","No",1,40.6772802,-74.0094471,NA,NA,40.6772802,-74.0094471
"315","Rodney Playground South","Yes","No",1,40.709785,-73.9559123,42.2054689,-95.9498735,40.709785,-73.9559123
"316","Roebling Playground","Yes","No",1,40.7064875,-73.9615144,35.7212689,-77.9155395,40.7064875,-73.9615144
"317","Rolf Henry Playground","Yes","No",1,40.6557697,-73.9474387,40.7127837,-74.0059413,40.6557697,-73.9474387
"318","Russell Pederson Playground","Yes","Not Available",1,40.626353,-74.036105,NA,NA,40.626353,-74.036105
"319","Saratoga Square Park","Yes","No",1,40.684971,-73.918769,NA,NA,40.684971,-73.918769
"320","Slope Park","Yes","Not Available",1,40.661698,-73.989475,29.8387038,31.3384993,40.661698,-73.989475
"321","Star Spangled Banner Playground","Yes","No",1,40.692846,-73.95765,35.9250637,-86.8688899,40.692846,-73.95765
"322","Sternberg Park","Yes","Yes",1,40.7064848,-73.947371,56.706922,-2.466115,40.7064848,-73.947371
"323","Stockton Playground","Yes","No",1,40.6973709,-73.948184,43.1706253,-75.2915564,40.6973709,-73.948184
"324","Sunset Park","Yes","No",1,40.645532,-74.0123851,-8.8555137,-48.5083212,40.645532,-74.0123851
"325","Surf Playground","Yes","No",1,40.5732096,-73.9929283,36.8756394,-76.2967379,40.5732096,-73.9929283
"326","Tiger Playground","Yes","Yes",1,40.6881981,-73.9111814,43.2773188,-93.4083467,40.6881981,-73.9111814
"327","Tilden Playground","Yes","No",1,40.648008,-73.93292,43.6947781,-79.5158585,40.648008,-73.93292
"328","Van Voorhees Lower Park","Yes","Not Available",1,40.689651,-73.999566,NA,NA,40.689651,-73.999566
"329","Washington Hall Playground","Yes","Yes",1,40.695402,-73.966711,NA,NA,40.695402,-73.966711
"330","William Sheridan Playground","Yes","No",1,40.7151949,-73.9640858,NA,NA,40.7151949,-73.9640858
"331","Willoughby Playground","Yes","No",1,40.6944871,-73.94692,42.3730923,-84.5416359,40.6944871,-73.94692
"332","Yak Playground","Yes","Yes",1,40.5925244,-73.9365332,NA,NA,40.5925244,-73.9365332
"333","Annandale Playground","Yes","Yes",1,40.7312764,-73.8516467,29.6935712,-95.3616088,40.7312764,-73.8516467
"334","Arrow Community Garden","Yes","No",1,40.755735,-73.926316,38.4047226,-82.600277,40.755735,-73.926316
"335","Astoria Heights Playground","Yes","No",1,40.760674,-73.911527,NA,NA,40.760674,-73.911527
"336","Athens Sq","Yes","Yes",1,40.768416,-73.921227,NA,NA,40.768416,-73.921227
"337","Bay Terrace Playground","Yes","No",1,40.782421,-73.777271,48.0054429,-97.8551628,40.782421,-73.777271
"338","Bayside Fields","Yes","Yes",1,40.773684,-73.784735,44.4267369,-97.516649,40.773684,-73.784735
"339","Bayside Playground","Yes","No",1,40.5849818,-73.8251811,40.5897085,-73.8148117,40.5849818,-73.8251811
"340","Bellaire Playground","Yes","No",1,40.7215183,-73.7578984,40.710539,-73.7871156,40.7215183,-73.7578984
"341","Captain Tilly Park","Yes","No",1,40.7124413,-73.7988958,36.53264,-119.6289038,40.7124413,-73.7988958
"342","Castlewood Playground","Yes","No",1,40.7493312,-73.7223177,40.7536177,-73.7227354,40.7493312,-73.7223177
"343","Challenge Playground","Yes","No",1,40.7567232,-73.7281103,43.7457298,-97.6172678,40.7567232,-73.7281103
"344","Clement Clark Moore Park","Yes","No",1,40.7466119,-74.0043308,41.1115472,-73.8583806,40.7466119,-74.0043308
"345","Clintonville Playground","Yes","No",1,40.7833263,-73.807903,40.7864387,-73.8098461,40.7833263,-73.807903
"346","Crocheron Park Field House","Yes","No",2,NA,NA,40.7543568,-73.8794598,40.7543568,-73.8794598
"347","Crowley Playground","Yes","No",1,40.7294578,-73.8799463,37.548291,-99.0500762,40.7294578,-73.8799463
"348","Cunningham Park","Yes","Yes",1,40.7367631,-73.7683784,40.7423761,-95.2234607,40.7367631,-73.7683784
"349","Ditmars Park Playground","Yes","No",1,40.7727441,-73.8976184,NA,NA,40.7727441,-73.8976184
"350","Dutch Kills Playground","Yes","No",1,40.757111,-73.933044,NA,NA,40.757111,-73.933044
"351","East Elmhurst Playground","Yes","Yes",1,40.765544,-73.870759,NA,NA,40.765544,-73.870759
"352","Ederle Comfort Station","Yes","Yes",2,NA,NA,40.7186362,-73.7954966,40.7186362,-73.7954966
"353","Emerald Playground","Yes","No",1,40.7309791,-73.8059729,61.1540538,-149.9542148,40.7309791,-73.8059729
"354","Equity Park","Yes","No",1,40.6913888,-73.8534845,42.7591754,-91.7155762,40.6913888,-73.8534845
"355","Farm Playground","Yes","No",1,40.735575,-73.775972,40.7381109,-73.7674294,40.735575,-73.775972
"356","Flushing Fields","Yes","Not Available",2,NA,NA,40.7714722,-73.8172937,40.7714722,-73.8172937
"357","Flushing Meadows Corona Park","Yes","No",1,40.7397136,-73.840785,40.7186362,-73.7954966,40.7397136,-73.840785
"358","Hallets Cove Playground","Yes","Not Available",1,40.7717904,-73.9343288,-37.1966644,144.0833442,40.7717904,-73.9343288
"359","Hammel Playground","Yes","Not Available",2,NA,NA,40.5831381,-73.8226613,40.5831381,-73.8226613
"360","Harold Schneideman Playground","Yes","Yes",1,40.664767,-73.850922,41.6400998,-90.5980213,40.664767,-73.850922
"361","Hart Playground","Yes","No",1,40.7489054,-73.8972181,41.5505926,-87.2047099,40.7489054,-73.8972181
"362","Hemon MacNeil Park","Yes","No",1,40.7928327,-73.8518567,NA,NA,40.7928327,-73.8518567
"363","Hollis Playground","Yes","No",1,40.706952,-73.75299,44.414235,-98.2489349,40.706952,-73.75299
"364","Holy Cow Playground","Yes","No",1,40.741262,-73.776427,40.9852219,-73.6771619,40.741262,-73.776427
"365","Hoover Playground","Yes","No",1,40.7120075,-73.8216889,39.9373794,-75.1802915,40.7120075,-73.8216889
"366","Horace Harding Playground","Yes","Not Available",1,40.7357639,-73.8567468,33.8631902,-84.4649469,40.7357639,-73.8567468
"367","John Golden Park","Yes","Yes",1,40.774225,-73.767632,NA,NA,40.774225,-73.767632
"368","Kissena Corridor East","Yes","No",1,40.7473524,-73.820586,40.9852219,-73.6771619,40.7473524,-73.820586
"369","Lawrence Virgilio Playground","Yes","Not Available",1,40.747474,-73.910586,NA,NA,40.747474,-73.910586
"370","London Planetree Playground","Yes","No",1,40.6860837,-73.853117,43.829476,-85.7420126,40.6860837,-73.853117
"371","Loring Field","Yes","No",2,42.736638,-72.3843867,40.6669522,-73.7957487,40.6669522,-73.7957487
"372","Lost Battalion Hall","Yes","Not Available",2,NA,NA,40.7282239,-73.7948516,40.7282239,-73.7948516
"373","Lou Lodati Playground","Yes","No",2,NA,NA,40.631055,-73.62462,40.631055,-73.62462
"374","Louis Armstrong Playground","Yes","Not Available",1,40.7556465,-73.8547709,51.3298101,-0.4139676,40.7556465,-73.8547709
"375","Louis Pasteur Park","Yes","No",1,40.76247,-73.734383,43.7894496,-97.317357,40.76247,-73.734383
"376","Maple Playground","Yes","Yes",1,40.7559225,-73.8260082,40.7413696,-73.8148124,40.7559225,-73.8260082
"377","Marconi Park","Yes","No",1,40.693704,-73.795286,42.4839997,-86.1205004,40.693704,-73.795286
"378","Marie Curie Park","Yes","No",1,40.7571164,-73.7715039,NA,NA,40.7571164,-73.7715039
"379","Maurice A. Fitzgerald Playground","Yes","No",1,40.690865,-73.839237,NA,NA,40.690865,-73.839237
"380","Michaelis-Bayswater Park","Yes","Yes",1,40.598722,-73.767504,40.5897085,-73.8148117,40.598722,-73.767504
"381","Montbellier Park","Yes","No",1,40.6746737,-73.7564275,40.7073529,-73.7390612,40.6746737,-73.7564275
"382","Murray Playground","Yes","Not Available",1,40.7472832,-73.9486568,34.4193638,-103.1463857,40.7472832,-73.9486568
"383","Nautilus Playground","Yes","No",1,40.685384,-73.770036,40.6628795,-73.551516,40.685384,-73.770036
"384","North Rochdale Playground","Yes","No",1,40.680689,-73.77472,NA,NA,40.680689,-73.77472
"385","Nicholas Demutis Playground","Yes","No",1,40.681596,-73.83901,NA,NA,40.681596,-73.83901
"386","Painters Playground","Yes","Not Available",1,40.720411,-73.860036,NA,NA,40.720411,-73.860036
"387","Playground 90","Yes","No",1,40.757315,-73.87845,32.4227473,-86.2748531,40.757315,-73.87845
"388","Playground 75","Yes","Not Available",1,40.726268,-73.808249,45.8539288,-99.3768295,40.726268,-73.808249
"389","Queens Farm Museum","Yes","No",2,12.9746611,77.6028414,40.7536177,-73.7227354,40.7536177,-73.7227354
"390","Queensbridge Park","Yes","Not Available",1,40.7566953,-73.9484021,34.4193638,-103.1463857,40.7566953,-73.9484021
"391","Reiff Playground","Yes","Not Available",1,40.7186569,-73.9016277,40.710981,-73.899709,40.7186569,-73.9016277
"392","Rufus King Park","Yes","Not Available",1,40.7036801,-73.8039529,40.7022091,-73.8041576,40.7036801,-73.8039529
"393","Russell Sage Playground","Yes","No",1,40.724354,-73.851407,43.0306261,-85.9566152,40.724354,-73.851407
"394","Seaside Playground","Yes","Not Available",1,40.5849818,-73.8251811,40.5831381,-73.8226613,40.5849818,-73.8251811
"395","Smokey Oval","Yes","No",1,40.694687,-73.821775,45.5789743,-99.643324,40.694687,-73.821775
"396","St. Albans Park","Yes","No",1,40.836557,-73.887887,40.837288,-73.887734,40.836557,-73.887887
"397","Tall Oak Playground","Yes","No",1,40.746569,-73.758899,NA,NA,40.746569,-73.758899
"398","Union Playground","Yes","No",1,40.735877,-73.988722,42.8212715,-89.3010356,40.735877,-73.988722
"399","Vleigh Place Playground","Yes","No",1,40.7181533,-73.8204022,40.72314,-73.8204868,40.7181533,-73.8204022
"400","Vleigh Playground","Yes","Yes",1,40.7298704,-73.8159908,23.0599167,113.1020109,40.7298704,-73.8159908
"401","Whitestone Playground","Yes","Yes",1,40.79201,-73.808606,NA,NA,40.79201,-73.808606
"402","Greencroft Playground","Yes","No",1,40.551685,-74.136334,NA,NA,40.551685,-74.136334
"403","Joline Pool Playground","Yes","Yes",2,NA,NA,40.3087869,-73.9960543,40.3087869,-73.9960543
"404","Levy Playground","Yes","No",1,40.633905,-74.1290426,41.9031595,-100.2688943,40.633905,-74.1290426
"405","Lyons Pool","Yes","Yes",1,40.637691,-74.074403,57.4390903,10.5516386,40.637691,-74.074403
"406","Mahoney Playground","Yes","No",1,40.6434007,-74.0860043,40.850432,-81.1339976,40.6434007,-74.0860043
"407","Markham Playground","Yes","Yes",1,40.6233382,-74.1458331,39.8422889,-86.1191996,40.6233382,-74.1458331
"408","McDonald Playground","Yes","Not Available",2,42.3674971,-71.2309007,43.6815232,-70.2898967,43.6815232,-70.2898967
"409","Midland Field","Yes","Yes",1,40.5762928,-74.098669,30.1800183,-92.5370785,40.5762928,-74.098669
"410","Midland Playground","Yes","No",1,40.5752343,-74.0988526,42.7765149,-94.227158,40.5752343,-74.0988526
"411","Old Town Playground","Yes","No",1,40.5954163,-74.081599,40.5966253,-74.0828032,40.5954163,-74.081599
"412","Prescott Playground","Yes","No",1,40.5227012,-74.1861976,40.5464584,-74.1414633,40.5227012,-74.1861976
"413","Schmul Park","Yes","No",1,40.5884484,-74.1852803,31.441349,-86.9680841,40.5884484,-74.1852803
"414","Silver Lake Park","Yes","No",1,40.628284,-74.099,36.7960918,-76.3334076,40.628284,-74.099
"415","South Beach Wetlands","Yes","Yes",1,40.5869221,-74.0729716,NA,NA,40.5869221,-74.0729716
"416","Stapleton Playground","Yes","Yes",1,40.623087,-74.079505,NA,NA,40.623087,-74.079505
"417","Willowbrook Park","Yes","No",1,40.600498,-74.158237,38.1397164,-79.0496289,40.600498,-74.158237
"418","High Line Bathroom at Gansevoort St","Yes","Yes",1,43.196119,-73.6516666,NA,NA,43.196119,-73.6516666
"419","Morton Williams","Yes","Unknown",1,40.753794,-73.968998,NA,NA,40.753794,-73.968998
"420","100% Playground","Yes","Not Available",1,40.646566,-73.899077,NA,NA,40.646566,-73.899077
"421","174th Street Playground","Yes","Not Available",1,40.8343419,-73.8777413,40.8276779,-73.9260176,40.8343419,-73.8777413
"422","227 Street Playground","Yes","Yes",2,34.7774186,-83.0644278,40.8897285,-73.863865,40.8897285,-73.863865
"423","Agnes Haywood Playground","Yes","Not Available",1,40.8803982,-73.8615704,37.209164,-93.2527085,40.8803982,-73.8615704
"424","Albemarle Park","Yes","Yes",1,40.645154,-73.980883,NA,NA,40.645154,-73.980883
"425","Albert J. Parham Playground","Yes","Yes",1,40.690205,-73.970958,NA,NA,40.690205,-73.970958
"426","Alley Pond Park (Alley Athletic Field)","Yes","Not Available",1,40.740016,-73.735096,34.1699691,-118.2891733,40.740016,-73.735096
"427","Alley Pond Park (Alley Pond Spring)","Yes","Not Available",1,40.739942,-73.736188,NA,NA,40.739942,-73.736188
"428","Alley Pond Park (Horatio Playground)","Yes","Not Available",1,40.747267,-73.742827,40.758232,-73.7531418,40.747267,-73.742827
"429","Alstyne Playground","Yes","Not Available",1,40.743533,-73.861561,40.7433542,-73.8636818,40.743533,-73.861561
"430","American Playground","Yes","Yes",1,40.728769,-73.957659,NA,NA,40.728769,-73.957659
"431","Ampere Playground (PS 64)","Yes","Not Available",1,40.681298,-73.856995,40.687565,-73.834403,40.681298,-73.856995
"432","Andrews Playground","No","Not Available",1,40.7434498,-73.9548102,53.0528095,-2.3062691,40.7434498,-73.9548102
"433","Arcilla Playground","Yes","Yes",1,40.8271436,-73.9142127,NA,NA,40.8271436,-73.9142127
"434","Arrochar Playground","Yes","Yes",1,40.5976316,-74.0709523,NA,NA,40.5976316,-74.0709523
"435","Astoria Park (Charybdis Playground)","Yes","Not Available",1,40.775606,-73.921492,NA,NA,40.775606,-73.921492
"436","Aubondale Playground","Yes","Not Available",1,40.7658583,-73.7942082,40.6788906,-90.4634925,40.7658583,-73.7942082
"437","Baisley Pond Park","Yes","Not Available",1,40.673605,-73.786032,NA,NA,40.673605,-73.786032
"438","Bartlett Playground","Yes","Not Available",1,40.7008946,-73.9460852,37.7524731,-122.4195908,40.7008946,-73.9460852
"439","Battery Park Comfort Station","Yes","Not Available",2,NA,NA,40.7035905,-74.0144071,40.7035905,-74.0144071
"440","Bayview Playground","Yes","Not Available",1,40.634803,-73.887118,40.635361,-73.8874068,40.634803,-73.887118
"441","Bedford Playground","Yes","Not Available",1,40.708391,-73.9639214,40.6536822,-73.9561495,40.708391,-73.9639214
"442","Benson Playground","Yes","Not Available",1,40.602355,-74.002215,NA,NA,40.602355,-74.002215
"443","Bensonhurst Park","Yes","Not Available",1,40.597859,-74.000014,NA,NA,40.597859,-74.000014
"444","Betsy Head Playground","Yes","Not Available",1,40.664648,-73.911824,NA,NA,40.664648,-73.911824
"445","Big Bush Park","Yes","Not Available",1,40.7395042,-73.90273,40.7625982,-73.902486,40.7395042,-73.90273
"446","Bildersee Playground","Yes","Not Available",1,40.6356534,-73.9118244,NA,NA,40.6356534,-73.9118244
"447","Bill Brown Memorial Playground","Yes","Not Available",1,40.592201,-73.945611,40.6536822,-73.9561495,40.592201,-73.945611
"448","Bleecker Playground","Yes","Not Available",1,40.7362218,-74.0055909,42.2528649,-73.790959,40.7362218,-74.0055909
"449","Blood Root Valley (Park House)","Yes","Yes",1,40.587452,-74.133367,NA,NA,40.587452,-74.133367
"450","Bloomingdale Park","","Yes",1,40.534986,-74.208435,NA,NA,40.534986,-74.208435
"451","Blue Heron Park Preserve (Nature Center)","Yes","Yes",2,NA,NA,40.5291996,-74.1761352,40.5291996,-74.1761352
"452","Bowne Park","Yes","Not Available",1,40.7705766,-73.807311,37.9411724,40.1982725,40.7705766,-73.807311
"453","Bowne Playground","Yes","Not Available",1,40.7579884,-73.8248135,40.7377518,-74.235895,40.7579884,-73.8248135
"454","Breininger Park","Yes","Not Available",1,40.7258447,-73.7290298,40.728006,-73.7341564,40.7258447,-73.7290298
"455","Breukelen Playground","Yes","Not Available",1,40.652276,-73.892182,30.9842977,-91.9623327,40.652276,-73.892182
"456","Bronx Park (Ben Abrams Playground)","Yes","Not Available",2,40.8370495,-73.8654295,40.8543818,-73.8610494,40.8543818,-73.8610494
"457","Bronx Park (Brady Playground)","Yes","Not Available",2,40.8370495,-73.8654295,40.8370495,-73.8654295,40.8370495,-73.8654295
"458","Bronx Park (French Charley's Playground)","Yes","Not Available",2,40.8370495,-73.8654295,40.8740125,-73.8833881,40.8740125,-73.8833881
"459","Bronx Park (Olinville Playground)","Yes","Not Available",1,40.8609032,-73.8706083,38.7180672,-94.2559255,40.8609032,-73.8706083
"460","Bronx Park (Ranaqua)","Yes","Not Available",1,40.8067116,-73.9222962,NA,NA,40.8067116,-73.9222962
"461","Bronx Park (River Park Playground)","Yes","Yes",1,40.8370495,-73.8654295,NA,NA,40.8370495,-73.8654295
"462","Bronx Park (Rosewood Playground)","Yes","Not Available",2,40.8370495,-73.8654295,40.9476645,-73.8345485,40.9476645,-73.8345485
"463","Bronx Park (Waring Playground)","Yes","Not Available",2,40.8370495,-73.8654295,40.8370495,-73.8654295,40.8370495,-73.8654295
"464","Bronx River Parkway (Parque de los Ninos)","Yes","Yes",2,40.9476645,-73.8345485,40.864696,-73.871816,40.864696,-73.871816
"465","Brookville Park","Yes","Not Available",1,40.660019,-73.745362,NA,NA,40.660019,-73.745362
"466","Brower Park","Yes","Not Available",1,40.6735874,-73.9431462,40.6781784,-73.9441579,40.6735874,-73.9431462
"467","Bufano Playground","Yes","Not Available",1,40.838143,-73.831052,NA,NA,40.838143,-73.831052
"468","Cabbell Park/Cambria Playground","Yes","Not Available",1,40.689689,-73.743155,NA,NA,40.689689,-73.743155
"469","Campiz Playground","Yes","Not Available",1,40.713785,-73.9541673,41.6957277,-71.2795162,40.713785,-73.9541673
"470","Canarsie Park","Yes","Not Available",1,40.6303632,-73.8926247,NA,NA,40.6303632,-73.8926247
"471","Capt. Rivera Playground","Yes","Yes",1,40.8178344,-73.906772,39.7189646,-104.9269401,40.8178344,-73.906772
"472","Capt. Tilly Park","Yes","Not Available",1,40.7124413,-73.7988958,40.3200915,-98.8997422,40.7124413,-73.7988958
"473","Captain Mario Fajardo Park","Yes","Not Available",1,40.74732,-73.820605,40.7413696,-73.8148124,40.74732,-73.820605
"474","Carroll Park","Yes","Yes",1,40.681041,-73.995684,NA,NA,40.681041,-73.995684
"475","Carver Playground","No","Not Available",1,40.6802881,-73.9207346,40.634696,-73.9188247,40.6802881,-73.9207346
"476","Caserta Playground","Yes","Not Available",1,40.8373952,-73.8538521,NA,NA,40.8373952,-73.8538521
"477","Cavanaugh Triangle (Angelo Campanero Playground)","Yes","Yes",1,40.86798,-73.842142,NA,NA,40.86798,-73.842142
"478","Central Park (Ancient Playground)","","Yes",1,40.780756,-73.961612,NA,NA,40.780756,-73.961612
"479","Central Park (Arsenal)","Yes","Not Available",1,40.767685,-73.97127,NA,NA,40.767685,-73.97127
"480","Central Park (Bethesda Terrace)","","Not Available",1,40.773802,-73.970849,NA,NA,40.773802,-73.970849
"481","Central Park (Conservatory Garden)","Yes","Not Available",1,40.793717,-73.952457,NA,NA,40.793717,-73.952457
"482","Central Park (Dana Discovery Center)","Yes","Yes",1,40.797116,-73.951372,NA,NA,40.797116,-73.951372
"483","Central Park (Heckscher Playground)","","Not Available",1,40.768479,-73.977202,29.8342058,31.3504823,40.768479,-73.977202
"484","Central Park (Kerbs Boathouse)","Yes","Not Available",1,40.773991,-73.966545,33.503068,-111.921811,40.773991,-73.966545
"485","Central Park (Loeb Boathouse)","Yes","Not Available",1,40.775303,-73.968766,NA,NA,40.775303,-73.968766
"486","Central Park (North Meadow Recreation Center)","Yes","Yes",1,40.791119,-73.95971,NA,NA,40.791119,-73.95971
"487","Central Park (Ramble)","","Not Available",1,40.777381,-73.969528,40.7828647,-73.9653551,40.777381,-73.969528
"488","Central Park (Sheep Meadow, Mineral Springs)","No","Yes",1,40.773044,-73.974266,NA,NA,40.773044,-73.974266
"489","Central Park (Tavern on The Green)","","Not Available",1,40.772206,-73.977604,40.7828647,-73.9653551,40.772206,-73.977604
"490","Central Park (Tennis Courts)","Yes","Not Available",1,40.789586,-73.961918,48.7632453,-101.4482345,40.789586,-73.961918
"491","Central Park (The Great Hill)","No","Not Available",1,40.796921,-73.958977,41.8810644,-87.663045,40.796921,-73.958977
"492","Central Park (The Metropolitan Museum of Art)","Yes","Not Available",1,40.779607,-73.963244,40.7789422,-73.9623032,40.779607,-73.963244
"493","Central Park (West 61st)","No","Not Available",1,40.769285,-73.980984,NA,NA,40.769285,-73.980984
"494","Central Park (Wollman Rink)","Yes","Yes",1,40.767751,-73.974466,NA,NA,40.767751,-73.974466
"495","Central Park Delacorte Comfort Station","Yes","Yes",1,40.78029,-73.968779,NA,NA,40.78029,-73.968779
"496","Claremont Park","Yes","Not Available",2,42.341862,-71.0808027,40.8427457,-73.908643,40.8427457,-73.908643
"497","Clark Playground","Yes","Yes",1,40.8137639,-73.9214695,39.9610321,32.9093759,40.8137639,-73.9214695
"498","Col. David Marcus Memorial Playground","Yes","Not Available",1,40.609572,-73.969435,37.6857796,-122.4842166,40.609572,-73.969435
"499","Coleman Square Playground","Yes","Not Available",1,40.7112051,-73.9936545,39.099582,-94.575511,40.7112051,-73.9936545
"500","College Point Park","Yes","Not Available",1,40.7858,-73.846496,42.6839286,-95.15155,40.7858,-73.846496
"501","Com. John Barry Park & Playground","No","Not Available",2,NA,NA,40.7018957,-73.9369936,40.7018957,-73.9369936
"502","Comm. Eugene S. Sarsfield Playground","Yes","Not Available",1,40.620224,-73.937493,39.8256472,-86.0553456,40.620224,-73.937493
"503","Corona Golf Playground","Yes","Not Available",1,40.7474938,-73.8549547,33.8631902,-84.4649469,40.7474938,-73.8549547
"504","Corporal John A. Seravalli Playground","Yes","Not Available",1,40.7392063,-74.0048564,42.2528649,-73.790959,40.7392063,-74.0048564
"505","Corporal Thompson Park","No","Not Available",1,40.6379157,-74.1184904,26.637498,-81.8460826,40.6379157,-74.1184904
"506","Crotona Park (Martin Van Buren Playground)","Yes","Not Available",1,40.8353103,-73.8958401,39.1309856,17.0067031,40.8353103,-73.8958401
"507","Cunningham Park (HQ8)","Yes","Yes",1,40.729372,-73.772702,NA,NA,40.729372,-73.772702
"508","Daniel M. O'Connell Playground","Yes","Not Available",1,40.6999581,-73.7582662,42.5137113,-86.1297597,40.6999581,-73.7582662
"509","Dematti Playground","Yes","Not Available",1,40.6145077,-74.0742565,42.3629638,-76.3514243,40.6145077,-74.0742565
"510","Detective Keith L. Williams Park","Yes","Not Available",1,40.702291,-73.784136,41.674269,-86.2901332,40.702291,-73.784136
"512","Double Nickel Playground","Yes","Yes",1,40.537665,-74.162203,40.5374856,-74.1622243,40.537665,-74.162203
"513","Dr. Charles R. Drew Memorial Park","Yes","Not Available",1,40.6809517,-73.8033076,NA,NA,40.6809517,-73.8033076
"514","Dugan Playground","Yes","Not Available",1,40.561588,-74.110892,44.358234,-88.706306,40.561588,-74.110892
"515","East Springfield Playground","Yes","Not Available",1,40.698433,-73.740198,NA,NA,40.698433,-73.740198
"516","Edenwald Playground","Yes","Not Available",1,40.8841875,-73.8450307,40.8834859,-73.8453026,40.8841875,-73.8450307
"517","Electric Playground","Yes","Not Available",1,40.7360573,-73.8053296,25.7689182,-80.3021226,40.7360573,-73.8053296
"518","Fisher Pool","No","Not Available",1,40.758943,-73.869324,49.2243292,-122.9176077,40.758943,-73.869324
"519","Flushing Meadows Corona Park (Albert H. Mauro Playground)","Yes","Not Available",1,40.7229926,-73.8270377,40.7251204,-73.8277254,40.7229926,-73.8270377
"520","Flushing Meadows Corona Park (Meadow Lake North)","Yes","Not Available",1,40.7359996,-73.840436,NA,NA,40.7359996,-73.840436
"521","Flushing Meadows Corona Park (Playground for All Children)","Yes","Yes",1,40.7408291,-73.8499488,40.7406704,-73.8501755,40.7408291,-73.8499488
"522","Flushing Meadows Corona Park (Worlds Fair Playground)","Yes","Not Available",1,40.7375349,-73.8457658,NA,NA,40.7375349,-73.8457658
"523","Flynn Playground","Yes","Not Available",1,42.2463216,-70.9972162,NA,NA,42.2463216,-70.9972162
"524","Forest Park (Jackson Pond Playground)","Yes","Not Available",1,40.7007278,-73.8431928,44.483595,-73.2190679,40.7007278,-73.8431928
"525","Forest Park (Seuffert Bandshell)","No","Not Available",1,40.698519,-73.85805,NA,NA,40.698519,-73.85805
"526","Forest Park (Sobelsohn Playground, The Overlook)","Yes","Not Available",2,NA,NA,40.7096359,-73.834812,40.7096359,-73.834812
"527","Forest Park (Tennis Courts -Forest Parkway)","Yes","Not Available",1,40.697681,-73.856495,NA,NA,40.697681,-73.856495
"528","Forest Park (The Overlook)","Yes","Not Available",1,40.702856,-73.849107,NA,NA,40.702856,-73.849107
"529","Forest Park (Victory Field)","Yes","Not Available",1,40.701735,-73.853268,NA,NA,40.701735,-73.853268
"530","Forest Park (Visitor Center, near the Carousel)","Yes","Not Available",1,40.700661,-73.856004,NA,NA,40.700661,-73.856004
"531","Fort Greene Park","Yes","Not Available",1,40.6914866,-73.9753317,NA,NA,40.6914866,-73.9753317
"532","Fort Independence Playground","Yes","Not Available",1,40.8816434,-73.8961157,34.8686932,-85.8394199,40.8816434,-73.8961157
"533","Francis Lewis Playground","Yes","Not Available",1,40.760445,-73.78434,NA,NA,40.760445,-73.78434
"534","Frank D. O'Connor Playground","Yes","Not Available",1,40.7442965,-73.8865612,41.1115472,-73.8583806,40.7442965,-73.8865612
"535","Frank Golden Park","Yes","Not Available",1,40.7847847,-73.8341872,43.8515035,-79.2703385,40.7847847,-73.8341872
"536","Frederick B. Judge Memorial Playground","Yes","Not Available",1,40.683447,-73.807767,53.5587088,-113.5819341,40.683447,-73.807767
"537","Fresh Meadows Playground (PS 173)","Yes","Not Available",1,40.7341196,-73.7961384,25.9478599,-80.3073243,40.7341196,-73.7961384
"538","Friends Field","Yes","Not Available",1,40.618619,-73.972871,NA,NA,40.618619,-73.972871
"539","Glenwood Playground","Yes","Yes",1,40.6368433,-73.9196324,40.634696,-73.9188247,40.6368433,-73.9196324
"540","Gorman Playground","Yes","Not Available",1,40.7625011,-73.8843563,51.3299758,-0.4134902,40.7625011,-73.8843563
"541","Gouverneur Playground","Yes","Not Available",1,40.8356154,-73.9033731,27.7749317,-82.6351014,40.8356154,-73.9033731
"542","Gowanus Playground","Yes","Not Available",1,40.6802801,-73.9852314,41.0095316,-74.1729106,40.6802801,-73.9852314
"543","Grandview Playground","Yes","Yes",1,40.63078,-74.164679,NA,NA,40.63078,-74.164679
"544","Gravesend Park","Yes","Not Available",1,40.6234499,-73.9842885,47.9330656,-97.3115371,40.6234499,-73.9842885
"545","Greene Playground","Yes","Not Available",1,40.6864082,-73.9659225,39.697399,-83.8897057,40.6864082,-73.9659225
"546","Greenwood Playground","Yes","Not Available",1,40.6502804,-73.9764294,40.6094454,-74.0285434,40.6502804,-73.9764294
"547","Grover Cleveland Park","Yes","Not Available",1,40.834281,-74.282995,NA,NA,40.834281,-74.282995
"548","Gunn Park (PS 18)","No","Not Available",1,40.732456,-73.731724,NA,NA,40.732456,-73.731724
"549","Haggerty Park","No","Yes",1,40.721486,-73.757948,44.4745123,-103.3163374,40.721486,-73.757948
"550","Harry Maze Memorial Park","Yes","Not Available",1,40.643022,-73.923026,51.732512,-1.2171341,40.643022,-73.923026
"551","Hermon MacNeil Park","Yes","Not Available",1,40.7928327,-73.8518567,NA,NA,40.7928327,-73.8518567
"552","High Rock Park","Yes","Not Available",1,40.582287,-74.123155,37.9752082,-122.360827,40.582287,-74.123155
"553","High Rock Park (Education Building)","Yes","Not Available",1,40.584828,-74.12514,37.9752082,-122.360827,40.584828,-74.12514
"554","High Rock Park (McArthur Park)","Yes","Yes",1,40.582531,-74.123208,37.9752082,-122.360827,40.582531,-74.123208
"555","High Rock Park (Visitor Center)","Yes","Not Available",1,40.584539,-74.125161,37.9752082,-122.360827,40.584539,-74.125161
"556","Highland Park","Yes","Not Available",1,40.4959379,-74.4243178,NA,NA,40.4959379,-74.4243178
"557","Hoffman Park","Yes","Not Available",1,40.732715,-73.872106,42.016843,-88.0759718,40.732715,-73.872106
"558","Jacob Schiff Playground (PS 192)","Yes","Not Available",2,NA,NA,40.8174777,-73.946736,40.8174777,-73.946736
"559","John J. Carty Park","Yes","Not Available",1,40.613194,-74.03008,NA,NA,40.613194,-74.03008
"560","Joseph Austin Playground","Yes","Not Available",1,40.715846,-73.8011017,40.7186362,-73.7954966,40.715846,-73.8011017
"561","Joseph F. Mafera Park","Yes","Not Available",1,40.7071757,-73.8915223,30.721227,35.3099502,40.7071757,-73.8915223
"562","Juniper Valley Park","Yes","Yes",1,40.720218,-73.881372,42.3388111,-71.0765188,40.720218,-73.881372
"563","K.L. Williams Playground (Tennis)","Yes","Not Available",1,40.704224,-73.785937,40.1387194,-92.0726067,40.704224,-73.785937
"564","Katzman Playground","Yes","Not Available",1,40.726407,-73.847432,NA,NA,40.726407,-73.847432
"565","Kennedy Playground","Yes","Not Available",1,40.771013,-73.779077,40.7699431,-73.7793645,40.771013,-73.779077
"566","Kissena Park (Tennis Courts)","Yes","Not Available",1,40.744708,-73.809363,NA,NA,40.744708,-73.809363
"567","La Guardia Playground West","Yes","Not Available",1,40.709894,-73.959284,NA,NA,40.709894,-73.959284
"568","Leif Ericson Park & Square","Yes","Not Available",1,40.629766,-74.010631,NA,NA,40.629766,-74.010631
"569","Levy Playground","Yes","Not Available",1,40.633905,-74.1290426,31.3615664,-96.1441315,40.633905,-74.1290426
"570","Liberty Pool","","Yes",2,34.559255,-92.7408164,40.7020409,-73.7831254,40.7020409,-73.7831254
"571","Park of the Americas","Yes","Not Available",1,40.748521,-73.86195,NA,NA,40.748521,-73.86195
"572","Luna Park Playground","Yes","Not Available",1,40.576129,-73.978033,37.0239219,-94.7507402,40.576129,-73.978033
"573","Marc's & Jason's Playground","Yes","Not Available",1,40.663323,-73.949663,NA,NA,40.663323,-73.949663
"574","Marine Park Nature Center","","Yes",1,40.6039714,-73.930572,NA,NA,40.6039714,-73.930572
"575","Mathew Muliner Playground","Yes","Yes",1,40.8468846,-73.8614786,NA,NA,40.8468846,-73.8614786
"576","Maurice Park","Yes","Not Available",1,40.727537,-73.904855,NA,NA,40.727537,-73.904855
"577","McKinley Park","Yes","Not Available",1,40.626552,-74.016745,40.6094454,-74.0285434,40.626552,-74.016745
"578","Midland Beach & Boardwalk","Yes","Yes",1,40.57149,-74.0931627,NA,NA,40.57149,-74.0931627
"579","Monsignor Mcgolrick Park","Yes","Not Available",1,40.7244435,-73.9433581,43.7232522,-111.1113326,40.7244435,-73.9433581
"580","Noonan Playground","Yes","Not Available",1,40.74127,-73.922399,NA,NA,40.74127,-73.922399
"581","P.O. Nicholas Demutis Playground","Yes","Not Available",1,40.681571,-73.839263,45.9135471,-100.3364941,40.681571,-73.839263
"582","Park Slope Playground","Yes","Not Available",1,40.676927,-73.978931,38.7544952,-90.3312256,40.676927,-73.978931
"583","Pat Perlato Playground","Yes","Not Available",1,40.576981,-73.946523,38.6372288,-84.5579481,40.576981,-73.946523
"584","Paul W. Kolbert Park/Rachel Haber Cohen Playground","Yes","Not Available",1,40.620141,-73.95798,36.1259239,-111.2178871,40.620141,-73.95798
"585","Pelham Bay Park (Bruckner CS)","Yes","Not Available",1,40.8496714,-73.8330844,40.8524136,-73.8263227,40.8496714,-73.8330844
"586","People's Park Playground","Yes","Not Available",1,40.809434,-73.916889,44.0509913,-95.5335334,40.809434,-73.916889
"587","Peter's Field","Yes","Not Available",1,40.735845,-73.98086,NA,NA,40.735845,-73.98086
"588","PFC Thomas Norton Memorial Playground","Yes","Not Available",1,40.614993,-73.944587,NA,NA,40.614993,-73.944587
"589","Pierrepont Playground","Yes","Not Available",1,40.696305,-73.99745,NA,NA,40.696305,-73.99745
"590","Pink Playground","Yes","Not Available",1,40.666304,-73.862032,39.7879895,-84.1773775,40.666304,-73.862032
"591","Playground 62 (PS 220)","Yes","Not Available",1,40.73624,-73.854875,NA,NA,40.73624,-73.854875
"592","Playground Fifty-Two","Yes","Not Available",1,40.815219,-73.901698,NA,NA,40.815219,-73.901698
"593","Poor Richard's Playground","Yes","Not Available",1,40.7926774,-73.9428706,29.8462469,31.344523,40.7926774,-73.9428706
"594","Potomac Playground","Yes","Not Available",1,40.6820904,-73.9442483,40.6120263,-74.0708689,40.6820904,-73.9442483
"595","Pratt Playground","Yes","Not Available",1,40.692302,-73.961938,41.6397696,-81.4065011,40.692302,-73.961938
"596","Prospect Park (East Parade Grounds)","Yes","Not Available",1,40.651894,-73.965707,NA,NA,40.651894,-73.965707
"597","Prospect Park (Litchfield Villa)","Yes","Not Available",1,40.666981,-73.97378,NA,NA,40.666981,-73.97378
"598","Prospect Park (Middle Long Meadow)","Yes","Yes",1,40.661447,-73.973008,NA,NA,40.661447,-73.973008
"599","Prospect Park (West Parade Grounds)","Yes","Not Available",1,40.649717,-73.970966,NA,NA,40.649717,-73.970966
"600","Prospect Park (Willink Hill)","Yes","Not Available",1,40.661913,-73.963877,NA,NA,40.661913,-73.963877
"601","Prospect Park (Wollman Rink & Flower Garden)","","Not Available",1,40.669335,-73.970271,NA,NA,40.669335,-73.970271
"602","PS 286 Playground","Yes","Yes",1,40.592388,-73.936367,NA,NA,40.592388,-73.936367
"603","Real Good Park (Lie Playground)","Yes","Yes",1,40.735407,-73.857742,NA,NA,40.735407,-73.857742
"604","Riverside Park (Boat Basin)","No","Not Available",1,40.785871,-73.984487,NA,NA,40.785871,-73.984487
"605","Riverside Park (Caf)","No","Yes",1,40.785733,-73.984493,NA,NA,40.785733,-73.984493
"606","Riverside Park (Claremont)","Yes","Not Available",1,40.811453,-73.963493,43.3294489,-85.9196777,40.811453,-73.963493
"607","Riverside Park (Classic Playground)","Yes","Not Available",1,40.787322,-73.980938,NA,NA,40.787322,-73.980938
"608","Riverside Park (Dinosaur Playground)","Yes","Not Available",1,40.813415,-73.963021,41.7166075,-87.7321699,40.813415,-73.963021
"609","Riverside Park (Hippo Playground)","Yes","Not Available",1,40.793267,-73.977992,41.7270733,-87.756897,40.793267,-73.977992
"610","Riverside Park (Neufeld Playground)","Yes","Not Available",1,40.783391,-73.984802,43.8501819,-85.8749985,40.783391,-73.984802
"611","Riverside Park (River Run Playground)","Yes","Not Available",1,40.787256,-73.980952,38.9780838,-94.9017482,40.787256,-73.980952
"612","Riverside Park (Riverbank Playground)","Yes","Not Available",1,40.787344,-73.982084,41.6370323,-87.6415624,40.787344,-73.982084
"613","Riverside Park (Ten Mile River Playground)","No","Not Available",1,40.811347,-73.965631,41.6208231,-87.6681095,40.811347,-73.965631
"614","Riverside Park (Tennis Courts)","Yes","Not Available",1,40.796793,-73.977044,40.8158821,-73.9623705,40.796793,-73.977044
"615","Robert Moses Playground","Yes","Not Available",1,40.7480467,-73.9692285,36.1259239,-111.2178871,40.7480467,-73.9692285
"616","Rochdale Park","Yes","Not Available",1,40.681351,-73.787159,NA,NA,40.681351,-73.787159
"617","Rockaway Beach","No","Not Available",1,40.584528,-73.811149,NA,NA,40.584528,-73.811149
"618","Rockaway Beach & Boardwalk (Beach 59th Street Playground)","Yes","Not Available",1,40.589087,-73.789072,29.9577052,-95.5791226,40.589087,-73.789072
"619","Rockaway Beach (Beach 116Th)","Yes","Not Available",1,40.577385,-73.836923,NA,NA,40.577385,-73.836923
"620","Rockaway Beach 106 Comfort Station","","Yes",1,40.580637,-73.825516,40.582913,-73.8278554,40.580637,-73.825516
"621","Rockaway Beach 117th L/G","","Yes",1,40.58023,-73.827597,40.5795009,-73.8381068,40.58023,-73.827597
"622","Rockaway Beach 86 Comfort Station","","Yes",1,40.584535,-73.811153,40.5890677,-73.8114645,40.584535,-73.811153
"623","Rockaway Beach 97 Comfort Station","","Yes",1,40.582946,-73.817583,40.584947,-73.8188057,40.582946,-73.817583
"624","Roebling Playground","Yes","Not Available",1,40.7064875,-73.9615144,35.7212689,-77.9155395,40.7064875,-73.9615144
"625","Roger Morris Park (Morris Jumel Mansion)","Yes","Not Available",1,40.83465,-73.93853,NA,NA,40.83465,-73.93853
"626","Rosemary's Playground (JHS 93)","Yes","Not Available",1,40.704357,-73.904049,NA,NA,40.704357,-73.904049
"627","Roy Wilkins Recreation Center","Yes","Not Available",1,40.687236,-73.772122,NA,NA,40.687236,-73.772122
"628","Rudd Playground","Yes","Not Available",1,40.683162,-73.9051704,-38.1457082,144.3383446,40.683162,-73.9051704
"629","Sara D. Roosevelt Park","Yes","Yes",1,40.722369,-73.991619,29.7604267,-95.3698028,40.722369,-73.991619
"630","Seth Low Playground","Yes","Not Available",1,40.6081073,-73.9863087,30.1696405,-85.6375679,40.6081073,-73.9863087
"631","Seton Park Playground","No","Not Available",1,40.88752,-73.918429,40.9666567,-95.3371507,40.88752,-73.918429
"632","Sheltering Arms Park","Yes","Not Available",1,40.814868,-73.955559,40.7743849,-73.98468,40.814868,-73.955559
"633","Shore Road Park","Yes","Not Available",1,40.622012,-74.040678,NA,NA,40.622012,-74.040678
"634","Shore Road Park","Yes","Not Available",1,40.628187,-74.039913,NA,NA,40.628187,-74.039913
"635","Shore Road Park","Yes","Not Available",1,40.620685,-74.0409,NA,NA,40.620685,-74.0409
"636","Sol Bloom Playground","Yes","Not Available",1,40.7895736,-73.9687693,40.7828647,-73.9653551,40.7895736,-73.9687693
"637","Sol Lain Playground","No","Not Available",1,40.7143044,-73.9839212,NA,NA,40.7143044,-73.9839212
"638","Sperandeo Brothers Playground","Yes","Not Available",1,40.6770054,-73.8847238,40.6762581,-73.9082993,40.6770054,-73.8847238
"639","Springfield Park","Yes","Not Available",1,40.661031,-73.761786,NA,NA,40.661031,-73.761786
"640","St. Andrew's Playground","Yes","Not Available",1,40.6787018,-73.9426124,40.6762581,-73.9082993,40.6787018,-73.9426124
"641","St. Catherine's Park","Yes","Not Available",2,53.2782543,-6.1191701,40.764625,-73.9583262,40.764625,-73.9583262
"642","St. Mary's Park (Recreation Center)","Yes","Yes",1,40.809883,-73.910434,37.8921376,-89.5047806,40.809883,-73.910434
"643","St. Mary's Park West","Yes","Not Available",1,40.812885,-73.9132,40.8123102,-73.9140718,40.812885,-73.9132
"644","St. Mary's Playground East Playground","Yes","Yes",1,40.811655,-73.914028,NA,NA,40.811655,-73.914028
"645","St. Vartan Park","Yes","Yes",1,40.7449676,-73.9736364,29.8894662,31.3071263,40.7449676,-73.9736364
"646","Stroud Playground","Yes","Not Available",1,40.6750147,-73.9618817,40.6844907,-73.9591228,40.6750147,-73.9618817
"647","Sunset Park (Recreation Center)","Yes","Not Available",1,40.647664,-74.005016,14.445776,79.9814137,40.647664,-74.005016
"648","Taylor Playground","Yes","Not Available",1,40.8391317,-73.8659808,NA,NA,40.8391317,-73.8659808
"649","Terrace Playground","Yes","Yes",1,40.613587,-74.098432,28.8535234,-96.3819597,40.613587,-74.098432
"650","The Pearly Gates","Yes","Not Available",1,40.8387396,-73.8454901,NA,NA,40.8387396,-73.8454901
"651","Thomas Jefferson Park","Yes","Not Available",1,40.793427,-73.934029,NA,NA,40.793427,-73.934029
"652","Todt Hill Playground","Yes","Yes",1,40.609359,-74.12035,NA,NA,40.609359,-74.12035
"653","Tompkins Square Park","Yes","Yes",1,40.726747,-73.9807,NA,NA,40.726747,-73.9807
"654","Triborough Bridge Playground A","Yes","Not Available",1,40.778799,-73.922544,NA,NA,40.778799,-73.922544
"655","Triborough Bridge Playground B","No","Not Available",1,40.784987,-73.925913,NA,NA,40.784987,-73.925913
"656","Underwood Park","Yes","Yes",1,40.688544,-73.966485,30.2240897,-92.0198427,40.688544,-73.966485
"657","Washington Square Park Western Half","Yes","Not Available",1,40.731397,-73.997007,30.0309108,-90.2171064,40.731397,-73.997007
"658","Wayanda Park","Yes","Not Available",1,40.710342,-73.739511,40.7101235,-73.7395005,40.710342,-73.739511
"659","Weeping Beech Park","Yes","Not Available",1,40.763414,-73.824469,41.5505926,-87.2047099,40.763414,-73.824469
"660","West 2nd Street Playground","Yes","Not Available",1,40.586441,-73.969889,33.3909024,-104.7074011,40.586441,-73.969889
"661","Luna Park Playground","Yes","Not Available",1,40.576062,-73.978829,33.4242225,-94.057226,40.576062,-73.978829
"662","William E. Kelly Memorial Park","Yes","Not Available",1,40.604574,-73.95627,45.4572407,-91.0830932,40.604574,-73.95627
"663","Williamsbridge Oval","Yes","Not Available",1,40.8779125,-73.8775576,NA,NA,40.8779125,-73.8775576
"664","Willis Playground","Yes","Not Available",1,40.8109536,-73.9228473,39.7107508,-95.5084783,40.8109536,-73.9228473
"665","Willow Lake Playground (PS 196)","Yes","Not Available",1,40.722735,-73.836987,NA,NA,40.722735,-73.836987
"666","Wingate Park","Yes","Not Available",1,40.6585943,-73.9442483,33.0303077,-83.9287213,40.6585943,-73.9442483
"667","Woods Playground","Yes","Not Available",1,40.675133,-73.930523,40.7233091,-74.1994354,40.675133,-73.930523
"668","Woodtree Playground","Yes","Not Available",1,40.7772518,-73.9025345,30.0443639,31.0364072,40.7772518,-73.9025345
