,NAME,ADDRESS,OPEN_YEAR_ROUND,HANDICAP_ACCESSIBLE,LAT,LNG,LAT1,LNG1,indicator,pro,add,add1
1,Robert Bendheim Playground,E. 100th St. at 5th Avenue,Yes,No,40.7902926,-73.9544024,48.8632856,-99.622883,1,207.2214642,"Robert Bendheim Playground, 1184 5th Ave, New York, NY 10029, USA","100th St NE & 5th Ave NE, Rolla, ND 58367, USA"
2,Conservatory Garden,105 Street at 5th Avenue,Yes,Yes,40.7937661,-73.9524574,40.7936129,-73.9515972,1,1.32E-07,"Conservatory Garden, E 104th Street, New York, NY 10029, USA","5th Ave & E 105th St, New York, NY 10029, USA"
3,Model Boathouse (Kerbs) Cafe at Conservatory Water,E. 74th near 5th Avenue,Yes,Yes,40.7697512,-73.9605925,29.9368369,30.9217914,1,NA,NA,"Street 5, Giza Governorate, Egypt"
4,Washington Square Park,Washington Sq South & Thompson St.,Yes,No,40.730831,-73.997343,42.7312423,-84.5522893,1,26.17122268,"Washington Square, 210 W Washington Square, Philadelphia, PA 19106, USA","S Washington Square, Lansing, MI 48933, USA"
5,Lasker Skating Rink,"106th, Mid~Park",Yes,No,40.79612,-73.954884,NA,NA,1,NA,NA,NA
6,Merchants Gate,W. 61st and Central Park West,Yes,No,43.4333332,-79.7398639,40.7692978,-73.9810471,2,15.34169182,"Merchants Gate, Oakville, ON L6M, Canada","Central Park West & W 61st St, New York, NY 10023, USA"
7,North Meadow Recreation Center,"97th Street Transverse Road, Central Park",Yes,Yes,40.2027199,-85.4116236,40.7904585,-73.9597062,2,6.7307339,"N Meadow Ln, Muncie, IN 47304, USA","97th St Transverse Rd, New York, NY 10029, USA"
8,Bethesda Terrace,72nd Street Mid~Park,Yes,No,40.773851,-73.970849,NA,NA,1,NA,"Bethesda Terrace, West Palm Beach, FL 33407, USA",NA
9,Central Park Zoo,E. 64th near 5th,Yes,No,40.767803,-73.971837,35.537612,-97.5745286,1,1438.486668,"Zoo Rd, Patan 44600, Nepal","NW 64th St, Oklahoma, USA"
10,Dana Discovery Center,110th Street at Lenox Avenue,Yes,No,NA,NA,40.7982157,-73.9523666,2,NA,NA,"Lenox Ave & W 110th St, New York, NY 10026, USA"
11,Bryant Park,42nd St. between 5th and 6th Avenue,Yes,No,40.753613,-73.98319,29.9069377,30.9042268,1,501.9505423,"Bryant Park Rd, Georgia, USA","Path Between Two Factories, Giza Governorate, Egypt"
12,Tennis House,94th Street Mid~Park,Yes,No,40.789889,-73.961839,NA,NA,1,NA,"Tennis House, 23 Keighley Rd, Cross Hills, Keighley, North Yorkshire BD20 7DA, UK",NA
13,Ramble Shed,79th Street Mid~Park,Yes,No,32.5426176,-93.6785311,40.7100991,-73.8736068,2,161.7563528,"Shed Rd, Bossier City, LA 71111, USA","Middle Village Playground, 79th St, Middle Village, NY 11379, USA"
14,The Arsenal,E. 64th St. at 5th Avenue,Yes,No,40.767644,-73.97126,NA,NA,1,NA,"The Arsenal, 830 5th Ave, New York, NY 10065, USA","5th Ave & E 64th St, New York, NY 10065, USA"
15,Great Hill,W. 106th St.,Yes,No,40.797011,-73.958974,NA,NA,1,NA,"Great Hill, Seymour, CT 06483, USA","W 106th St, Indiana, USA"
16,Heckscher House,"Heckscher Playground, 62nd St. Mid~Park",Yes,No,40.699645,-73.156632,NA,NA,1,NA,NA,NA
17,Wollman Skating Rink,E. 63rd near East Drive,Yes,No,40.767767,-73.974498,NA,NA,1,NA,NA,"E 63rd Dr, Aurora, CO 80019, USA"
18,Delacorte Theatre,W. 81st at Turtle Pond,Yes,Yes,40.78029,-73.968843,NA,NA,1,NA,NA,NA
19,Rockfeller Center Lower Floor,49st St. between 5th and 6th Aves.,Yes,No,40.758871,-73.978656,NA,NA,1,NA,NA,NA
20,Grand Central Station Public Restroom,Near 42nd St and Park Ave,Yes,Yes,40.752926,-73.977207,40.7752549,-74.020156,1,NA,NA,"Park Ave & 42nd St, Union City, NJ 07087, USA"
21,Carl Schurz Park,87th Street and East End Avenue,Yes,No,40.7751302,-73.9436973,40.7756171,-73.9442821,1,2.85E-07,"Carl Schurz Park, East 86th Street & East End Ave, New York, NY 10028, USA","E 87th St & East End Ave, New York, NY 10028, USA"
22,Tavern on the Green,W. 66th St and Central Park West,Yes,No,51.1273063,-0.1552554,40.7724388,-73.978741,2,764.4324118,"Tavern on the Green, Peterhouse Parade, Crawley, West Sussex RH10 3BA, UK","Central Park West & W 66th St, New York, NY 10023, USA"
23,Rockefeller Center,630 5th Ave.,Yes,No,40.7587402,-73.9786736,41.1052774,-98.3890491,1,8.459103177,"Rockefeller Center, 45 Rockefeller Plaza, New York, NY 10111, USA","630 5th Ave, St Libory, NE 68872, USA"
24,SAKS Fifth Avenue,611 Fifth Avenue,Yes,No,33.7273312,-85.7915635,40.758045,-73.9769745,2,83.06499392,"5th Ave, Anniston, AL, USA","611 5th Ave, New York, NY 10022, USA"
25,Barneys New York,660 Madison Ave.,Yes,No,NA,NA,42.6569096,-73.7755431,2,NA,NA,"660 Madison Ave, Albany, NY 12208, USA"
26,Bloomingdales,1000 3rd Ave.,Yes,No,40.762185,-73.967009,38.4293583,-82.381212,1,4094.99028,"Bloomingdales, Neeladri Rd, Karuna Nagar, Electronics City Phase 1, Electronic City, Doddathoguru, Karnataka 560100, India","1000 3rd Ave, Huntington, WV 25702, USA"
27,Old Navy,503~511 Broadway,Yes,No,43.8679298,-91.2031002,40.7224829,-73.9995839,2,54.11274701,"Old Navy, Onalaska, WI 54650, USA","511 Broadway, New York, NY 10012, USA"
29,Ancient Playground,E. 85 St. off 5th Avenue.,Yes,No,40.7807557,-73.9616122,40.7372973,-73.9921861,1,0.001328693,"Ancient playground, New York, NY 10028, USA","85 5th Ave, New York, NY 10003, USA"
30,South Street Seaport Mall,19 Fulton St.,Yes,No,40.706995,-74.004355,37.7797643,-122.4153467,1,2226.570187,Seaport St - Sharjah - United Arab Emirates,"19 Fulton St, San Francisco, CA 94118, USA"
31,"World Financial Center, Winter Garden",West St.,Yes,No,28.5652787,-81.5861847,40.7222399,-74.0118717,2,92.08062926,"Winter Garden, FL, USA","West St, New York, NY, USA"
32,Long Island Railroad,Penn Station,Yes,Yes,40.730542,-73.869241,NA,NA,1,NA,"Long Island Railroad, New York, USA","Pennsylvania Station, New York, NY 10119, USA"
33,Washington Square Park Bathrooms,"Washington Square Park , West 4th St. and Sullivan St.",Yes,Yes,40.730329,-73.998058,NA,NA,1,NA,"Washington, DC, USA","Washington, DC, USA"
34,Penn Station Public Restroom,Penn Station,Yes,Yes,"40.750779,",-73.993476,NA,NA,1,NA,NA,"Pennsylvania Station, New York, NY 10119, USA"
35,Public Restroom,Madison Sq Park,Yes,Yes,40.742029,-73.98751,NA,NA,1,NA,"Public Restroom, 631 Mesa Rd, Point Reyes Station, CA 94956, USA","Park, Madison, ME 04950, USA"
36,Prospect Park Bandshell,ninth street playground ~ bandshell building,Yes,Yes,"40.663471,",-73.976615,NA,NA,1,NA,NA,NA
37,Old Stone House in JJ Byrne park,336 3rd St between 3d and 4th streets in the park,Yes,Yes,"40.672997,",-73.984577,34.2525642,-85.1692598,1,NA,NA,"E 3rd St & E 4th Ave, Rome, GA 30161, USA"
39,Bed Bath and Beyond,620 6th Ave.,Yes,No,40.740114,-73.994428,39.725618,-104.9796887,1,55.37792136,"Bed, Bath, and Beyond Parking Lot, Gardnertown, NY 12550, USA","620 6th Ave, Denver, CO 80203, USA"
40,Bodum,413 W 14th St,Yes,No,40.751527,-74.006399,41.506081,-87.660127,1,22.26210402,"Bodum, MN 55040, USA","413 W 14th St, Chicago Heights, IL 60411, USA"
41,McDonalds,6 Water St.,Yes,No,40.70317,-74.012241,NA,NA,1,NA,"McDonald's, Gainesville, FL 32608, USA","Water St, Tasley, VA 23441, USA"
42,Old Navy,610 Avenue of the Americas,Yes,No,40.738825,-73.996357,NA,NA,1,NA,"Old Navy, Onalaska, WI 54650, USA","610 Ave of the Americas, New York, NY 10011, USA"
44,Staten Island Ferry,1 Bay Street,Yes,Yes,40.6722666,-74.0425913,31.144255,-81.4948815,1,71.00550747,"Staten Island Ferry, United States","Bay St, Brunswick, GA 31520, USA"
45,St Vincents Hospital,800 Castleton Avenue,Yes,Yes,33.50702,-86.78764,40.634491,-74.1092251,2,90.36503453,"St Vincent's Hospital, Birmingham, AL 35205, USA","800 Castleton Ave, Staten Island, NY 10310, USA"
46,St Vincents Emergency Room Area,900 castleton avenue,Yes,Yes,NA,NA,40.6347424,-74.1122795,2,NA,NA,"900 Castleton Ave, Staten Island, NY 10310, USA"
47,Shoprite 2344,2344 Richmond Avenue ~ Forest Avenue,Yes,Yes,0.3276086,32.6075211,40.6276019,-74.1678203,2,4303.045543,"Shoprite Rd, Kampala, Uganda","2344 Forest Ave, Staten Island, NY 10303, USA"
49,Tribeca Bagels,374 Canal Street,Yes,No,40.7162692,-74.0086323,29.9507988,-90.0658676,1,172.8636913,"Tribeca, New York, NY, USA","374 Canal St, New Orleans, LA 70130, USA"
50,Pearl Paint,308 Canal Street,Yes,No,40.719664,-74.002683,29.9506042,-90.0655654,1,63.52579509,"Pearl St, Washington Court House, OH 43160, USA","308 Canal St, New Orleans, LA 70130, USA"
51,Sbarro Pizza and Pasta,298 Canal Street,Yes,No,40.719826,",-74.002225",29.9505752,-90.0655196,1,NA,NA,"298 Canal St, New Orleans, LA 70130, USA"
52,Kings Leather,267 Canal Street,Yes,No,40.719151,-74.00101,29.9505876,-90.0650254,1,1945.190849,"Leather Ln, Great Missenden, Buckinghamshire HP16 9LX, UK","267 Canal St, New Orleans, LA 70130, USA"
53,Starbucks Coffee,405 Broadway,Yes,No,51.4816036,-0.0093395,40.718977,-74.002641,2,796.3622749,"Starbucks Coffee, Greenwich Church St, London SE10 9BL, UK","405 Broadway, New York, NY 10013, USA"
54,Teariffic,51 Mott Street,Yes,No,NA,NA,40.7154702,-73.9987687,2,NA,NA,"51 Mott St, New York, NY 10013, USA"
55,Burger King,273 Canal Street,Yes,No,38.070376,27.411275,40.719335,-74.001218,2,953.8781816,"Burger King, 35860 Tulum/Torbal€±/€¡zmir, Turkey","273 Canal St, New Orleans, LA 70130, USA"
56,Mc Donalds,260 Canal Street,Yes,No,29.6904256,-100.0320273,40.718687,-74.001022,2,2.591728959,"Mc Donalds, Camp Wood, TX 78833, USA","260 Canal St, New Orleans, LA 70130, USA"
57,Citicorp Center,153 East 53rd St,Yes,No,40.758516,-73.969858,41.5744546,-90.5713507,1,208.3953904,"777 Tower, 777 S Figueroa St, Los Angeles, CA 90017, USA","153 E 53rd St, Davenport, IA 52806, USA"
58,Babies R Us,24~30 Union Square East corner 15th St,Yes,No,39.2108098,-86.3872651,40.7360786,-73.9917058,2,18.90655986,"E Baby Creek Rd, Bloomington, IN 47408, USA","24 E 15th St, New York, NY 10003, USA"
59,Chelsea Market,75 Ninth Ave,Yes,No,40.742734,-74.006041,NA,NA,1,NA,"Market St, Boston, MA 02114, USA","75 9th Ave, Clayton, WI 54004, USA"
60,Times Square McDonalds,"1560 Broadway, New York, NY",Yes,No,"40.758878,",-73.984635,NA,NA,1,NA,"Theater District, New York, NY, USA","1560 Broadway, New York, NY 10036, USA"
61,Staten Island Ferry,"Water St & Whitehall St, New York, NY 10004, USA",Yes,Yes,"40.702622,",-74.012822,NA,NA,1,NA,"Staten Island Ferry, United States","Water St, New York, USA"
62,Public Atrium ~ 60 Wall St.,"60 Wall St, New York, NY 10005",Yes,No,"40.706687,",-74.007743,NA,NA,1,NA,NA,"60 Wall St, New York, NY 10005, USA"
63,Cosmos Service Inc,"65 Broadway, New York, NY 10006",Yes,No,"40.707632,",-74.012539,40.7073131,-74.012587,2,NA,NA,"65 Broadway, New York, NY 10006, USA"
64,Burger King,"44 Gold St, New York, NY 10038",Yes,No,38.070376,27.411275,40.7087437,-74.0057398,2,267.5753761,"Burger King, 35860 Tulum/Torbal€±/€¡zmir, Turkey","44 Gold St, New York, NY 10038, USA"
65,New Amsterdam Branch Library,"9 Murray St, New York, NY 10007",Yes,Yes,40.8511337,-73.9290202,40.7136425,-74.0079468,1,0.010851713,"2520 Amsterdam Ave Mendel Gottesman Library of Hebraica/Judaica, New York, NY 10033, USA","9 Murray Street, New York, NY 10007, USA"
66,Columbus Park,"29 Baxter St, New York, NY 10013",Yes,No,41.389954,-71.8303537,40.7143985,-74.000444,1,1.466016438,"Columbus Park, Westerly, RI 02891, USA","29 Baxter St, New York, NY 10013, USA"
67,Franklin Square,"70 Elizabeth St, New York, NY 10013",Yes,No,40.7073244,-73.6759635,40.7177279,-73.9962547,1,0.003332149,"Franklin Square, NY, USA","70 Elizabeth St, New York, NY 10013, USA"
68,Bloomingdales Soho,504 Broadway (bet. Broome and Spring),Yes,No,"40.722384,",-73.999144,NA,NA,1,NA,"SoHo, New York, NY, USA",NA
69,Macys Department Store,151 West 34th St.,Yes,No,40.750962,-73.989526,NA,NA,1,NA,NA,"151 W 34th St, New York, NY 10001, USA"
71,Port Authority Bus Terminal,8th Ave & 42nd street,Yes,Yes,40.757414,-73.989772,NA,NA,1,NA,"Port Authority Bus Terminal, 625 8th Ave, New York, NY 10018, USA","8th Ave, California, USA"
72,Herald Square Park,Broadway & 35th Street,Yes,Yes,39.975322,-85.992374,41.1115472,-73.8583806,2,13.78694908,"Herald Square, Fishers, IN 46038, USA","Broadway, New York, USA"
73,Greeley Square Park,Broadway & 32nd Street,Yes,Yes,40.7486977,-73.9883319,41.1115472,-73.8583806,1,0.047152764,"Greeley Square, Broadway, New York, NY 10001, USA","Broadway, New York, USA"
74,Lincoln Center for Performing Arts,138 W. 65th St.,Yes,No,40.773844,-73.983616,41.7764299,-87.626745,1,46.43581706,"Howard Center for the Performing Arts, Ruston, LA 71270, USA","138 W 65th St, Chicago, IL 60621, USA"
75,PROSPECT PARK playground,EASTERN PKWY BETWEEN WASHINGTON AVE & FLATBUSH AVE,Yes,Yes,41.516443,-78.2136126,NA,NA,1,NA,"Prospect Park Playground, Midland Rd, Emporium, PA 15834, USA",NA
76,Brooklyn Public Library central branch,Grand Army Plaza,Yes,Yes,40.6781784,-73.9441579,40.6730861,-73.9694272,2,0.000128679,"Brooklyn, NY, USA","Grand Army Plaza, Brooklyn, NY, USA"
77,Underhill Playground,Underhill Ave at Prospect Place,Yes,No,40.676715,-73.965699,NA,NA,1,NA,"Underhill Playground, Underhill Ave, Brooklyn, NY 11238, USA","Prospect Pl & Underhill Ave, Brooklyn, NY 11238, USA"
78,Saks Fifth Avenue,"611 Fifth Avenue (between E. 49th and 50th st.), New York, NY 10022",Yes,Yes,40.758096,-73.976969,NA,NA,1,NA,"5th Ave, Anniston, AL, USA","E 50th St, New York, NY 10022, USA"
79,Bloomingdales,"1000 Third Avenue (between E. 59th and 60th st.), New York, NY 10022",Yes,Yes,12.8409319,77.6516957,40.7619986,-73.9656927,2,4233.319214,"Bloomingdales, Neeladri Rd, Karuna Nagar, Electronics City Phase 1, Electronic City, Doddathoguru, Karnataka 560100, India","E 60th St, New York, NY 10022, USA"
80,Penn Station~ New Jersey Transit,"14 Penn Plaza, New York, NY 10001",Yes,Yes,NA,NA,40.7507431,-73.9921407,2,NA,NA,"14 Pennsylvania Plaza, New York, NY 10001, USA"
81,Rockefeller Center,47~50 st,Yes,Yes,40.7587402,-73.9786736,43.5577651,-93.8091128,1,55.5058931,"Rockefeller Center, 45 Rockefeller Plaza, New York, NY 10111, USA","47 50th St, Bricelyn, MN 56014, USA"
82,Public Restroom,Shore Road Park at 79th Street,Yes,No,38.0685555,-122.8051225,40.6312978,-74.0388353,2,124.975427,"Public Restroom, 631 Mesa Rd, Point Reyes Station, CA 94956, USA","Shore Rd & 79th St, Brooklyn, NY 11209, USA"
83,The Soltaire,"20 River Terrace, New York, NY 10282",Yes,Yes,58.0263858,-3.847595,40.7165818,-74.0161324,2,1214.603629,"Saltire, Dalchalm, Brora, Highland KW9 6LP, UK","20 River Terrace, New York, NY 10282, USA"
84,Chelsea Piers Golf Club,11th Ave & W 22nd St,Yes,No,NA,NA,40.7437031,-74.008656,2,NA,NA,"11th Ave, New York, NY, USA"
85,Playground,Madison st. & Jefferson,Yes,No,40.712904,-73.988492,35.0131472,-90.7226097,1,180.1010394,"Playground, Richford, VT 05476, USA","Madison, AR, USA"
86,Playground,Market St. & Cherry St.,Yes,No,40.710725,-73.994091,34.3186252,-77.7693794,1,54.36123958,"Playground, Richford, VT 05476, USA","Market St, Wilmington, NC, USA"
87,Playground,Catherine Slip & Monroe St.,Yes,No,44.9934103,-72.6768891,40.7096804,-73.997115,1,5.655491163,"Playground, Richford, VT 05476, USA","Catherine Slip, New York, NY, USA"
88,Wendys,6420 AMBOY ROAD,Yes,Yes,40.521419,-74.216746,NA,NA,1,NA,"Wendy's, Blanco, TX 78606, USA","6420 Amboy Rd, Staten Island, NY 10309, USA"
89,Roosevelt Island Tramway,"Road 5, New York, New York",Yes,No,40.762991,-73.949399,NA,NA,1,NA,"Roosevelt Island Tram Station, Main St, Roosevelt Island, NY 10044, USA","5th Rd, Queens, NY 11693, USA"
90,NY Waterway Ferry Terminal,W. 39th & 12th Ave,Yes,No,40.7274499,-74.0308856,30.5247591,-82.942473,1,90.92217078,"NY Waterway Newport, 30 River Ct, Jersey City, NJ 07310, USA","W 39, Jasper, FL 32052, USA"
91,Great Kills Park Beach Center,204 Buffalo Street,Yes,Yes,40.5543273,-74.156292,42.469859,-78.9359939,1,9.155670506,"Great Kills, Staten Island, NY, USA","204 Buffalo St, Gowanda, NY 14070, USA"
92,New York Public Library Schwarzman Building,5th Avenue & 42nd Street,Yes,Yes,40.7127837,-74.0059413,40.7465393,-73.9859729,1,0.000674045,"New York, NY, USA","5th Ave, New York, NY, USA"
93,Time Warner,Columbus Circle,Yes,No,34.8010769,-76.8776499,40.7680441,-73.9823722,2,17.27602707,"Time Warner Dr, Newport, NC 28570, USA","Columbus Cir, New York, NY, USA"
94,Great Kills Park Parking Lot,Buffalo St,Yes,No,40.5543273,-74.156292,42.4715489,-78.9354506,1,9.162706098,"Great Kills, Staten Island, NY, USA","Buffalo St, Gowanda, NY 14070, USA"
96,Home Depot,"2970 Cropsey Ave, Brooklyn, NY 11214",Yes,No,40.581776,-73.988563,NA,NA,1,NA,"Home Depot, 4640 Roosevelt Blvd, Philadelphia, PA 19124, USA","2970 Cropsey Ave, Brooklyn, NY 11214, USA"
97,Pathmark,"2965 Cropsey Ave., Brooklyn, NY",Yes,No,40.582988,-73.984933,NA,NA,1,NA,"Pathmark Plaza, Mt Vernon, NY 10550, USA","2965 Cropsey Ave, Brooklyn, NY 11214, USA"
98,Loehmanns Department Store,"2807 EAST 21ST STREET BROOKLYN, NY 11235 (718) 368~1256",Yes,No,40.584251,-73.94673,NA,NA,1,NA,NA,"2807 E 21st St, Brooklyn, NY 11235, USA"
99,Battery Park,"7 Slate St, New York, NY 10004, USA",Yes,No,40.7032775,-74.0170279,41.3562081,-74.6803501,1,0.433103362,"Battery Park, New York, NY 10004, USA","7 Slate Hill Rd, Port Jervis, NY 12771, USA"
100,Castle Clinton,"17 Battery Pl, New York, NY 10005",Yes,Yes,40.7034401,-74.0168023,40.7051613,-74.0159706,1,1.43E-06,"Castle Clinton National Monument, Battery Park, New York, NY 10004, USA","17 Battery Pl, New York, NY 10004, USA"
101,Battery Park,"Washington St & Battery Pl, New York, NY 10004",Yes,No,40.7032775,-74.0170279,30.6163073,-92.057063,1,181.9692965,"Battery Park, New York, NY 10004, USA","Washington, LA, USA"
102,Public Toilets,By the entrance to Chelsea Pier,Yes,No,40.748886,-74.008691,NA,NA,1,NA,"Public Toilets, Sturry Hill, Sturry, Canterbury, Kent CT2 0BH, UK",NA
103,Inside Playground at Union Sq.,Union Square NE side,Yes,Yes,40.735266,-73.990277,29.4827971,-98.3289085,1,NA,NA,"Union Terrace, San Antonio, TX 78244, USA"
104,Conservatory Pond ~ Central Park close to 74th St and 5th ave,Conservatory Pond ~ Central Park close to 74th St and 5th ave,Yes,No,40.773965,-73.966555,NA,NA,1,NA,NA,NA
105,Pier 84 Comfort Station,Hudson River Greenway at 44th St,Yes,Yes,40.763445,-73.999861,NA,NA,1,NA,NA,"W 44th St & Hudson River Greenway, New York, NY 10036, USA"
106,Riverside Branch New York Public Library,127 Amsterdam Avenue (at W. 65th St.),Yes,Yes,40.774468,-73.984442,NA,NA,1,NA,"Riverside Dr, New York, NY, USA","Amsterdam Ave & W 65th St, New York, NY 10023, USA"
109,Playground 174,"East 174 Street, Stratford Ave",Yes,Not Available,40.8343419,-73.8777413,40.7633699,-73.6412419,1,0.016784835,"Playground 174, E 174th St, Bronx, NY 10472, USA","174 Stratford Ave, Williston Park, NY 11596, USA"
110,Bronx River Parkway,Bronx Blvd between East 226 St and East 228 St,Yes,Not Available,40.9476645,-73.8345485,40.8370495,-73.8654295,1,0.003415902,"Bronx River Pkwy, New York, USA","Bronx County, NY, USA"
111,Abigail Playground,"East 156 Street, Tinton Avenue",Yes,Not Available,40.8173278,-73.9048429,40.3055318,-74.0687506,1,0.083887305,"Abigail Playground, Bronx, NY 10455, USA","156 Tinton Ave, Eatontown, NJ 07724, USA"
112,Agnes Haywood Playground,"East 215 Street, Barnes Avenue, East 216 Street",Yes,Not Available,40.8803982,-73.8615704,37.209164,-93.2527085,1,71.18940937,"Agnes Haywood Playground, Barnes Ave, Bronx, NY 10467, USA","215 N Barnes Ave, Springfield, MO 65802, USA"
113,Allerton Playground,"Anrow Avenue, Bouck Avenue, Throop Avenue, Streetedman Place, Allerton Avenue",Yes,Not Available,40.865851,-73.850576,NA,NA,1,NA,"Allerton Playground, Allerton Ave, Bronx, NY 10469, USA",NA
114,Arcilla Playground,"Teller Avenue, Park Avenue, Clay Avenue, East 64 Street",Yes,Not Available,40.8271436,-73.9142127,NA,NA,1,NA,NA,NA
115,Bailey Playground,"Bailey Avenue, Weast 233-West 238 Streets",Yes,Not Available,40.8819128,-73.9001578,39.1729522,-90.7877677,1,28.86025995,NA,"238 Bailey Ave, Elsberry, MO 63343, USA"
116,Behagen Playground,"Tinton Avenue, East 165 Street, Union Avenue, East 166 Street",Yes,Not Available,40.8253722,-73.9012602,NA,NA,1,NA,"Basil Behagen Playground, Tinton Ave, Bronx, NY 10456, USA",NA
117,Belmont Playground,"Crotona Avenue, East 181 Street",Yes,Not Available,40.8502451,-73.8876637,18.0244065,-76.8091508,1,66.68539302,"Belmont Playground, E 181st St, Bronx, NY 10457, USA","Crotona Terrace, Kingston, Jamaica"
118,Bronx Park,Lydig Avenue & Bonx Park East,Yes,No,44.9529891,-93.3618372,40.8543818,-73.8610494,2,79.92607123,"Bronx Park, St Louis Park, MN, USA","Lydig Ave, Bronx, NY, USA"
119,Bronx Park,Bronx Park East between Bronxdale Avenue and Unionport Road,Yes,Not Available,44.9529891,-93.3618372,40.8370495,-73.8654295,2,80.24603651,"Bronx Park, St Louis Park, MN, USA","Bronx County, NY, USA"
120,Bronx Park,East 204 Street & W/S Bronx Park,Yes,Not Available,44.9529891,-93.3618372,40.8740125,-73.8833881,2,79.45213808,"Bronx Park, St Louis Park, MN, USA","E 204th St, New York, NY, USA"
121,Bronx Park,East 219 Street & Bronx River Parkway,Yes,Not Available,44.9529891,-93.3618372,38.7180672,-94.2559255,,5.574570722,"Bronx Park, St Louis Park, MN, USA","E 219th St, Pleasant Hill, MO 64080, USA"
122,Bronx Park,"Southern Voulevard, Webster, Burke avenues, Bronx Park East, 180 Street",Yes,Not Available,44.9529891,-93.3618372,NA,NA,,NA,NA,NA
123,Bronx Park,"East 180th Street, Boston Road",Yes,Not Available,44.9529891,-93.3618372,NA,NA,,NA,NA,NA
124,Bronx Park,Bronx River Parkway & Rosewood Street,Yes,Not Available,44.9529891,-93.3618372,40.9476645,-73.8345485,,78.2131298,"Bronx Park, St Louis Park, MN, USA","Bronx River Pkwy, New York, USA"
125,Bronx Park,Bronx Park East between Waring Avenue and Thwaites Place,Yes,Not Available,NA,NA,NA,NA,,NA,"Bronx Park, St Louis Park, MN, USA","Bronx County, NY, USA"
126,Bronx River Parkway,"Bronx River Parkway, Bronx Park, Westchester/NYC City Line",Yes,Not Available,40.9476645,-73.8345485,40.864696,-73.871816,,0.003092029,"Bronx River Pkwy, New York, USA","Bronx River Pkwy, Bronx, NY, USA"
127,Bufano Park,"La Salle Avenue, Edison Avenue, Bradford Avenue, Waterbury Avenue",Yes,Not Available,40.8381348,-73.8310627,NA,NA,1,NA,"Bufano Park, Bradford Ave, Bronx, NY 10461, USA",NA
128,Captain Rivera Playground,"East 156 Street, Forest Avenue",Yes,Not Available,40.8178344,-73.906772,39.7189646,-104.9269401,1,34.08712592,"Captain Rivera Playground, 720 E 156th St, Bronx, NY 10455, USA","156 Forest St, Denver, CO 80220, USA"
129,Caserta Playground,"St. Raymond Avenue, Puroy Street",Yes,Not Available,40.8373952,-73.8538521,NA,NA,1,NA,"Caserta Playground, St Raymonds Ave, Bronx, NY 10462, USA",NA
130,Castle Hill Playground,"Parker Street, Castle Hill Avenue, Puroy Street",Yes,Not Available,40.8234124,-73.8509116,NA,NA,1,NA,"Police Officer Hilario Serrano Playground, Turnbull Ave, Bronx, NY 10473, USA",NA
131,Cauldwell Playground,"Caldwell Avenue, East 163 Street, East 161 Street",Yes,Not Available,NA,NA,NA,NA,1,NA,"Speedwell Park-Pocahontas L, Morristown, NJ 07960, USA","163 Caldwell Ct, Ferguson, MO 63135, USA"
132,Cedar Playground,"West 179 Street, West Burnside Avenue, Major Deegan Expressway, Sedgewick Avenue",Yes,Not Available,NA,NA,NA,NA,,NA,"Cedar Playground, Cedar Ave, Bronx, NY 10453, USA",NA
133,Ciccarone Park Playground,"Arthur Avenue, East 188 Street",Yes,Not Available,NA,NA,NA,NA,,NA,NA,"188 Arthur Ave SE, Minneapolis, MN 55414, USA"
134,Claremont Park,Mount Eden Parkway & Morris Avenue,Yes,No,NA,NA,NA,NA,,NA,"Claremont Park, Boston, MA 02118, USA","Mt Eden Pkwy, Bronx, NY, USA"
135,Claremont Park Playground,E 170 Street & Teller Avenue,Yes,No,37.8608563,-122.2568367,40.471443,-93.8654043,,74.11829582,"Willard Park playground, Berkeley, CA 94705, USA","E 170th St, Missouri, USA"
136,Clark Playground,"3 Avenue, East 144 Street, East 146 Street",Yes,Not Available,40.8137639,-73.9214695,39.9610321,32.9093759,1,91.09805909,"Clark Playground, Bronx, NY 10454, USA","Hac€±lar, 883/3. Sk., 06360 Alt€±nda€Ù/Ankara, Turkey"
137,Colucci Playground,"Hutchinson River Parkway, Wilkinson Avenue, Mayflower Avenue",Yes,Not Available,40.8528355,-73.8347386,NA,NA,1,NA,"Colucci Playground, Marconi St, Bronx, NY 10461, USA",NA
138,Crotona Park (Martin Van Buren Playground),Crotona East & Claremont Parkway,Yes,No,40.8353103,-73.8958401,39.1309856,17.0067031,1,154.9274497,"Martin Van Buren Playground, Crotona Park E, Bronx, NY 10457, USA","Province of Crotone, Italy"
139,Crotona Park (Playground of the Stars),Fulton Avenue & Crotona Park South,Yes,No,40.835697,-73.901235,43.2880277,-76.1482738,1,387.2491608,"Province of Crotone, Italy","Fulton Ave, Central Square, NY 13036, USA"
140,Crotona Park (Pool House),173rd Street & Fulton Avenue,Yes,Yes,NA,NA,NA,NA,,NA,"Province of Crotone, Italy","173rd St, South Dakota, USA"
141,Crotona Park (Environmental Center),"Crotona Park North, Crotona Park South, Crotona Park East, Fulton Avenue",Yes,No,NA,NA,NA,NA,,NA,"Province of Crotone, Italy","Province of Crotone, Italy"
142,Devoe Park,"West Fordham Road, University Avenue, Sedgwick Avenue, Father Zeiser Place",Yes,No,NA,NA,NA,NA,,NA,"Devoe Park, Bronx, NY 10468, USA",NA
143,Drew Playground,"Fulton Avenue, East 169 Street",Yes,Not Available,NA,NA,NA,NA,,NA,"Drew Playground, Fulton Ave, Bronx, NY 10456, USA","169 S Fulton Ave, Tulsa, OK 74112, USA"
144,Eastchester Playground,"Adee Avenue, Tenbroeck Avenue",Yes,Not Available,40.8698953,-73.8527494,NA,NA,1,NA,"Eastchester Playground, Bronx, NY 10469, USA",NA
145,Edenwald Playground,"East 226 Drive, Schieffelin Avenue",Yes,No,40.8841875,-73.8450307,40.8834859,-73.8453026,1,1.91E-07,"Edenwald Playground, Schieffelin Ave, Bronx, NY 10466, USA","Schieffelin Ave, Bronx, NY 10466, USA"
146,Flynn Playground,"3 Avenue, East 158 Street, Brook Avenue, East 157 Street",Yes,Not Available,42.2463216,-70.9972162,NA,NA,,NA,"Flynn Playground, South St, Quincy, MA 02169, USA",NA
147,Fort Independence Playground,"Stevenson Place, West 238 Street, Sedgwick Avenue",Yes,Not Available,40.8816434,-73.8961157,34.8686932,-85.8394199,1,71.81449338,"Fort Independence Playground, Bronx, NY 10463, USA","Stevenson, AL, USA"
148,Franz Sigel Park,"East 153 Street, Gerard Avenue, East 151 Street, Walton Avenue",Yes,Not Available,40.8231019,-73.9253274,NA,NA,1,NA,"Franz Sigel Park, Bronx, NY 10451, USA",NA
149,Grove Hill Playground,"East 158 Street, Caldwell Avenue, Eagle Avenue",Yes,Not Available,NA,NA,NA,NA,,NA,"Grove Hill Playground, E 158th St, Bronx, NY 10456, USA",NA
150,Grove Hill Playground,"Holland Avenue, Magenta Street, Cueger Avenue",Yes,Not Available,NA,NA,NA,NA,,NA,"Grove Hill Playground, E 158th St, Bronx, NY 10456, USA",NA
151,Haffen Park,"Burke Avenue, Hammersley Avenue, Gunther Avenue, Ely Avenue",Yes,No,40.8736702,-73.8393333,NA,NA,1,NA,"Haffen Park, Bronx, NY 10469, USA",NA
153,Harris Park,"West 205 Street, Paul Avenue, Bedford Pk B, Goulden Avenue",Yes,Not Available,-33.8223447,151.0093394,NA,NA,,NA,"Harris Park NSW 2150, Australia",NA
154,Havemeyer,"Watson Avenue, Havennuemeter Avenue, Cross Bronx Expressway",Yes,Not Available,41.0539313,-73.5671808,NA,NA,,NA,"Havemeyer Ln, Greenwich, CT 06830, USA",NA
155,Henry Hudson Park,"Palisade Avenue, Kappock Street & Independence Avenue",Yes,Not Available,40.8445809,-73.9449285,NA,NA,,NA,"Henry Hudson Pkwy, New York, NY, USA",NA
156,Horseshoe Playground,"Hall Place, Rodgers Place, East 165 Street",Yes,Not Available,40.8240128,-73.8976774,43.6358402,-79.425958,1,15.54457087,"Horseshoe Park, Hall Pl, Bronx, NY 10459, USA","165 Dufferin St, Toronto, ON M6K 3H6, Canada"
157,Hunts Point Playground,"Spofford Avenue, Hunts Point Avenue, Faile Street",Yes,Not Available,40.8142264,-73.8858262,40.8144125,-73.8868227,1,1.85E-07,"Hunts Point Playground, Hunts Point Ave, Bronx, NY 10474, USA","Spofford Ave, Bronx, NY 10474, USA"
158,Julio Barballo Field,"Lafayette Avenue, Manda Street",Yes,Not Available,-25.2624483,-57.4841778,33.5391114,-92.8469446,,2079.385843,"Optaciano Carballo, Luque, Paraguay","Amanda St SW, Camden, AR 71701, USA"
159,Loreto Park Playground,"Morris Park Avenue, Haight Avenue, Tomlinson Avenue, Van Nest Avenue",Yes,Not Available,NA,NA,40.8522006,-73.8507279,,NA,NA,"Morris Park, Bronx, NY, USA"
160,Lozada Playground,"East 135 Street, Willis Avenue, Alexander Avenue",Yes,Not Available,40.8078754,-73.9250518,NA,NA,1,NA,NA,NA
161,Macombs Dam Park,East 161th street & Ruppert Place,Yes,Not Available,40.8275468,-73.92977,40.0221122,-86.1021167,1,9.804029195,"Macombs Dam Park, Bronx, NY 10451, USA","E 161st St, Indiana, USA"
162,Magenta Playground,"Olinville Avenue, Rosewood Street",Yes,Not Available,40.8736833,-73.8679103,40.873235,-73.868208,1,1.33E-07,"Magenta Playground, Olinville Ave, Bronx, NY 10467, USA","Rosewood St, Bronx, NY 10467, USA"
163,Mapes Pool,"East 180 Street, Mapes & Prospect avenues",Yes,Not Available,NA,NA,44.676126,-84.2319123,,NA,NA,"180 Mapes Rd, Luzerne, MI 48636, USA"
164,Marble Hill Playground,"Marble Hill Avenue, West 130 Street, West 228 Street",Yes,Not Available,40.877523,-73.9082418,38.833984,-90.838313,1,34.59726077,"Marble Hill Playground, Bronx, NY 10463, USA","130 Marble Crossing Dr, Wentzville, MO 63385, USA"
165,Matthew Muliner Playground,"Delancy Place, Miliner Avenue, Matthews Avenue",Yes,Not Available,NA,NA,NA,NA,,NA,NA,NA
166,Mazzei Playground,"Mace Avenue, Williamsbridge Road",Yes,Not Available,40.8626762,-73.8582626,40.8629385,-73.8520399,1,1.63E-06,"Mazzei Playground, Williamsbridge Rd, Bronx, NY 10469, USA","Mace Ave, Bronx, NY, USA"
167,Millbrook Playground,"East 135 Street, Cypress Avenue",Yes,Not Available,NA,NA,NA,NA,,NA,"Millbrook Playground, East Hartford, CT 06118, USA","135 Cypress Ave, St Cloud, FL 34769, USA"
168,Mosholu Playground,"Mosholu Parkway, Bainbridge Avenue, Briggs Avenue",Yes,Not Available,NA,NA,NA,NA,,NA,NA,NA
169,Mott Playground,"Morris Avenue, College Avenue, McClellan Street",Yes,Not Available,NA,NA,NA,NA,,NA,"Mott Playground, Morris Ave, Sarasota, FL 34239, USA",NA
170,Mullaly Park (Skate Building),"East 164 Street, Jerome Avenue, Macombs Dam Bridge, East 162 Street, River Avenue",Yes,Not Available,NA,NA,NA,NA,,NA,NA,NA
171,Nelson Playground,"West 166 Street, Nelson Avenue, Woodycrest Avenue",Yes,Not Available,40.8348988,-73.9269807,NA,NA,1,NA,"Nelson Playground, Nelson Ave, Bronx, NY 10452, USA",NA
172,Noble Playground,"Nobel Avenue, Bronx River Avenue, Bronx River Parkway, Cross Bronz Expressway",Yes,Not Available,40.8372519,-73.8722287,NA,NA,1,NA,"Noble Playground, Bronx River Ave, Bronx, NY 10460, USA",NA
173,Orchard Beach Pavilion,"Bruckner Boulevard, Eastchester Bay, Hutchinson",Yes,Not Available,42.976524,-77.976095,40.8524136,-73.8263227,1,8.8145745,"Orchard Dr, Le Roy, NY 14482, USA","Bruckner Blvd, Bronx, NY, USA"
175,Owen Dolen Recreation Center,"Westchester Avenue, Lane Avenue, East Tremont Avenue",Yes,No,NA,NA,41.0144987,-73.7118056,,NA,NA,"Westchester Ave, New York, USA"
176,P.O. Serrano Playground,"Turnbull Avenue, Olmstead Avenue, Lafayette Avenue",Yes,Not Available,NA,NA,NA,NA,,NA,NA,NA
177,Parkside Playground,"Arnow Avenue, Adee Avenue, Olinville Avenue",Yes,Not Available,NA,NA,NA,NA,,NA,NA,NA
178,Pelham Bay Park (Bruckner Boulevard and Wilkinson Avenue),"Bruckner Boulevard, Eastchester Bay, Hutchinson",Yes,Not Available,NA,NA,NA,NA,,NA,"Bruckner Blvd & Wilkinson Ave, Bronx, NY 10461, USA","Bruckner Blvd, Bronx, NY, USA"
179,Pelham Bay Park (Bruckner CS),"Bruckner Boulevard, Eastchester Bay, Hutchinson",Yes,Not Available,NA,NA,NA,NA,,NA,"Middletown - Pelham Bay, Bronx, NY, USA","Bruckner Blvd, Bronx, NY, USA"
180,Pelham Bay Park (Hunter Island Picnic Area),"Bruckner Boulevard, Eastchester Bay, Hutchinson",Yes,Not Available,40.8496714,-73.8330844,40.8524136,-73.8263227,,1.85E-05,"Middletown - Pelham Bay, Bronx, NY, USA","Bruckner Blvd, Bronx, NY, USA"
181,Pelham Bay Park (Playground for All Children),Bruckner Expressway & Buhre Avenue,Yes,Yes,40.8496714,-73.8330844,40.8252582,-73.8663659,,0.000812508,"Middletown - Pelham Bay, Bronx, NY, USA","Bruckner Expy, Bronx, NY, USA"
182,Pelham South Park Headquarters,"Bruckner Boulevard, Eastchester Bay, Hutchinson",Yes,Not Available,33.3160127,-86.8016106,40.8524136,-73.8263227,,97.78697141,"Chandalar Office Park Cir, Pelham, AL 35124, USA","Bruckner Blvd, Bronx, NY, USA"
183,Quarry Ballfields,"Quarry Road, East 181 Street, Oak Place & Hughes Avenue",Yes,Not Available,40.8510258,-73.890971,NA,NA,1,NA,"Quarry Ballfields, Arthur Ave, Bronx, NY 10457, USA",NA
184,Rainey Park,"Dawson Street, Beck Street, Kelly Street, Intervale Avenue, Longwood Avenue",Yes,Not Available,22.5358784,88.3586033,NA,NA,,NA,"Rainey Park, Ballygunge, Kolkata, West Bengal 700019, India",NA
185,Randall Playground,"Randall Avenue, Castle Hill Avenue",Yes,Not Available,NA,NA,NA,NA,,NA,"Randall Playground, Randall Ave, Bronx, NY 10473, USA","Castle Creek Dr, Missouri City, TX 77489, USA"
186,Rev. Polite Playground,"Rev. James Polite Avenue, Intervale Avenue, East 167 Street",Yes,Not Available,NA,NA,NA,NA,,NA,"Reverend Polite Playground, Hall Pl, Bronx, NY 10459, USA",NA
187,Richman (Echo) Park Playground,"East 178 Street & Ryer Avenue, Upper Level",Yes,Not Available,NA,NA,NA,NA,,NA,NA,"E 178th St, Bronx, NY, USA"
188,Rienzi Playground,"East 226 Street, Barnes Avenue, East 225 Street",Yes,Not Available,NA,NA,NA,NA,,NA,"Rienzi Playground, 226 White Plains Rd, Bronx, NY 10466, USA","226 S Barnes Ave, Springfield, MO 65802, USA"
189,Riverbend Playground,"Bailey Avenue, West Kingsbridge Road",Yes,Not Available,40.8718815,-73.9059453,NA,NA,,NA,"Riverbend Playground, Bailey Ave, Bronx, NY 10463, USA",NA
190,Rose Hill Park,"Webster Avenue, Harlem River, East Fordham Road",Yes,Not Available,51.4901036,-0.9642497,40.8444372,-73.9026954,2,776.4783607,"Rosehill Park, Reading, Reading RG4 8XE, UK","Webster Ave, Bronx, NY, USA"
191,Seton Park,"West 135 Street, Independence Avenue, West 232 Street",Yes,Not Available,40.885941,-73.9165092,38.8875829,-77.0127201,1,6.187338131,"Seton Park, Independence Ave, Bronx, NY 10463, USA","135 Independence Ave SW, Washington, DC 20024, USA"
192,Slattery Playground,"East 183 Street, Ryer Avenue, Valentine Avenue",Yes,Not Available,40.857314,-73.8983205,NA,NA,1,NA,"Slattery Playground, E 183rd St, Bronx, NY 10458, USA",NA
193,Soundview Park Playground,Metcalf Avenue between Seward and Randall Avenues,Yes,Not Available,40.8222095,-73.8597328,NA,NA,1,NA,"Space Time Playground, Underhill Ave, Bronx, NY 10473, USA",NA
194,Space Time Playground,"Streetory Avenue, Bolton Avenue, Lafayette Avenue, Underhill Avenue",Yes,Not Available,NA,NA,NA,NA,,NA,"Space Time Playground, Underhill Ave, Bronx, NY 10473, USA",NA
195,Stars & Stripes Playground,"Guerlain Street, Thieriot Avenue, Taylor Avenue",Yes,Not Available,NA,NA,NA,NA,,NA,"Stars, Angono, Rizal, Philippines",NA
196,Tiffany Playground,"Tiffany Street, Fox Street, East 167 Street",Yes,Not Available,NA,NA,NA,NA,,NA,"Tiffany Playground, 1050 Tiffany St, Bronx, NY 10459, USA",NA
197,Tremont Park Playground,Corner of East 175 Street & Arthur Avenue,Yes,Not Available,NA,NA,43.1905,-91.8592758,,NA,"Cullinan Park playground, S Prairie Ln, Tremont, IL 61568, USA",NA
198,Van Cortlandt Park (Allen Shandler Recreation Area),"Broadway, Jerome Avenue, City Line, Van Cortlandt Park South",Yes,No,NA,NA,40.890385,-73.896044,2,NA,NA,NA
199,Van Cortlandt Park (Classic Playground),Van Cortlandt Park South and Gouverneur Avenue,Yes,No,NA,NA,40.8849265,-73.8907719,2,NA,NA,"Van Cortlandt Park S & Gouverneur Ave, Bronx, NY 10463, USA"
200,Van Cortlandt Park (Indian Field),"Broadway, Jerome Avenue, City Line, Van Cortlandt Park South",Yes,Yes,NA,NA,40.89651,-73.878271,2,NA,NA,NA
201,Van Cortlandt Park (Nature Center),West 239 Street & Van Cortlandt East,Yes,No,NA,NA,40.891135,-73.893921,2,NA,NA,"W 239th St, Kansas, USA"
202,Van Cortlandt Park (Pool Building),West 242nd Street & Broadway,Yes,No,NA,NA,40.8895802,-73.8999318,2,NA,NA,"W 242nd St, Bronx, NY, USA"
203,Van Cortlandt Park (Stables Area),Broadway and West 254th Street,Yes,No,NA,NA,40.9010541,-73.8969283,2,NA,NA,NA
204,Van Cortlandt Park (Stadium),"Broadway, Jerome Avenue, City Line, Van Cortlandt Park South",Yes,No,NA,NA,40.888181,-73.897402,2,NA,NA,NA
205,Van Cortlandt par (UC Pool Headquarters),"Broadway, Jerome Avenue, City Line, Van Cortlandt Park South",Yes,No,NA,NA,40.8899,-73.895857,2,NA,NA,NA
206,Van Cortlandt Park (Woodlawn Playground),West 239 Street & Broadway,Yes,No,NA,NA,40.900074,-73.872186,2,NA,NA,"W 239th St, Kansas, USA"
207,Vidalia Park,Vyse & Daly avenues between West 179-180 streets,Yes,Not Available,40.8442589,-73.8811989,52.1790819,-1.2987189,1,822.7095637,"Vidalia Park, Bronx, NY 10460, USA","Vyse Cottage, 22 Townsend Ln, Upper Boddington, Daventry, Northamptonshire NN11 6DR, UK"
208,Vinmont Veteran Playground,"Mosholu Avenue, West 254 Street, Riverdale Avenue, West 256 Street",Yes,Not Available,NA,NA,NA,NA,,NA,NA,NA
209,Virginia Playground,"Virginia Avenue, McGraw Avenue, Cross Bronx Expressway, White Plains Road",Yes,Not Available,40.8342007,-73.8622136,NA,NA,1,NA,"Virginia Playground, Cross Bronx Expy, Bronx, NY 10462, USA",NA
210,Wakefield Playground,"Matilda Avenue, East 239 Street, Carpenter Avenue",Yes,Not Available,40.9018109,-73.854679,NA,NA,1,NA,"Wakefield Playground, Matilda Ave, Bronx, NY 10470, USA",NA
211,Watson Gleason Playground,"Gleason Avenue, Rosedale Avnue, Watson Avenue, Nobel Avenue",Yes,Not Available,40.8284567,-73.868921,28.6160748,-80.8213475,1,84.90568755,"Watson Gleason Playground, Noble Ave, Bronx, NY 10472, USA","Rosedale St, Titusville, FL 32796, USA"
212,Webster Playground,E. 188 St. Bet. Webster Avenue and Park Avenue,Yes,Not Available,40.8595438,-73.8929003,NA,NA,1,NA,NA,NA
213,Williamsbridge Oval,"Reservoir Oval East, Reservoir Oval West, Reservoir Place, Putnam Place, Bainbridge Avenue, Wayne Avenue, Tryon Avenue, Holt Place, Van Cortlandt Avenue",Yes,Not Available,40.8779125,-73.8775576,NA,NA,1,NA,"Williamsbridge Oval, 3225 Reservoir Oval E, Bronx, NY 10467, USA",NA
214,Willis Playground,"East 139 Street, East 140 Street, Willis & Alexander avenues",Yes,Not Available,40.8109536,-73.9228473,NA,NA,1,NA,"Willis Playground, Willis Ave, Bronx, NY 10454, USA","140th St, Kansas, USA"
215,Zimmerman Playground,"Britton Street, Barker Avenue, Olinville Avenue",Yes,Not Available,NA,NA,NA,NA,,NA,"Zimmerman Playground, Britton St, Bronx, NY 10467, USA",NA
216,Abe Lincoln Playground,"East 135 Street, between Madison & 5 avenues",Yes,Not Available,40.8123146,-73.937268,43.0730517,-89.4012302,1,34.95995306,"Abraham Lincoln Playground, New York, NY 10037, USA","Madison, WI, USA"
217,Alexander Hamilton Playground,"Hamilton Place, West 140 to West 141 Streets",Yes,Not Available,40.8230268,-73.9513202,41.2795964,-82.2451306,1,3.786701697,"Alexander Hamilton Playground, Hamilton Pl, New York, NY 10031, USA","W Hamilton St & N Coast Inland Trail - Lorain County (Elyria to Kipton), Oberlin, OH 44074, USA"
218,Alfred E. Smith Park,"Catherine Slip, Madison & South Streets",Yes,Not Available,42.653986,-73.75993,43.0730517,-89.4012302,1,6.554732417,"Alfred E. Smith Building, Albany, NY 12210, USA","Madison, WI, USA"
219,Alice Kornegay Triangle,"Lexington Avenue, East 128 & East 129 Streets",Yes,No,NA,NA,40.92844,-81.1153853,,NA,NA,"N Rockhill Ave, Alliance, OH 44601, USA"
220,Annunciation Park,"Convent and Amsterdam Avenue, W 135 Street",Yes,Not Available,38.5152427,-90.309449,40.8184009,-73.9508602,2,37.67641794,"Annunciation Dr, St. Louis, MO 63125, USA","W 135th St & Convent Ave, New York, NY 10031, USA"
221,Asser Levy Playground,Asser Levy Place & East 24-25 streets,Yes,No,NA,NA,NA,NA,,NA,NA,"Asser Levy Pl, New York, NY 10010, USA"
222,Audoubon Playground,West 170 Street & audubon avenue,Yes,No,NA,NA,NA,NA,,NA,"Audubon Park, 2909 W Northwest Blvd, Spokane, WA 99205, USA","W 170th St, Eagleville, MO 64442, USA"
223,Augustus St. Gaudens,"East 19 to East 20 streets, 2 avenue",Yes,Not Available,NA,NA,NA,NA,,NA,"Augustus St. Gaudens Playground, 2nd Ave, New York, NY 10003, USA","20 W 2nd Ave, Kennewick, WA 99336, USA"
224,Bendheim Playground,100th Street and 5th Avenue,Yes,Not Available,NA,NA,NA,NA,,NA,"Robert Bendheim Playground, 1184 5th Ave, New York, NY 10029, USA","5th Ave & 100th St, Deer Park, WI 54007, USA"
225,Bennett Park,"West 185 Street, Ft Washington Avenue",Yes,Not Available,51.4656923,0.0122441,40.1390398,-75.2100952,,852.0172975,"Bennett Park, London SE3 9RA, UK","185 Fort Washington Ave, Fort Washington, PA 19034, USA"
226,Bleecker Playground,Hudson & West 11 streets,Yes,Not Available,40.7362218,-74.0055909,42.2528649,-73.790959,1,0.32551999,"Bleecker Playground, Hudson St, New York, NY 10014, USA","Hudson, NY, USA"
227,Bloomingdale Playground,"Amsterdam Avenue, West 104 & West 105 streets",Yes,Not Available,40.7993583,-73.9662115,40.7987854,-73.9658493,1,2.08E-07,"Bloomingdale Playground, 907 Amsterdam Ave, New York, NY 10025, USA","W 104th St, New York, NY 10025, USA"
228,Carl Schurz Park,East 84 Street & East End Avenue,Yes,Yes,40.7751302,-73.9436973,39.2430991,-93.8875601,1,30.55461806,"Carl Schurz Park, East 86th Street & East End Ave, New York, NY 10028, USA","E 84th St, Missouri, USA"
229,Carl Schurz Promenade,"Stone Wall to East River, East 84 to East 90 streets",Yes,Not Available,48.8629644,8.2005383,NA,NA,,NA,"Carl-Schurz-StraÌÙe, 76437 Rastatt, Germany",NA
230,Carmansville Playground,"Amsterdam Avenue, West 151 to West 152 streets",Yes,Not Available,NA,NA,NA,NA,,NA,"Carmansville Playground, Amsterdam Ave, New York, NY 10031, USA","Amsterdam Bridge, Toronto, ON, Canada"
231,Chelsea Park,West 27 Street & 9 Avenue,Yes,Not Available,NA,NA,NA,NA,,NA,"Chelsea Park, Pittsford, NY 14534, USA","W 27th St, Norfolk, VA, USA"
232,Chelsea Recreation Center,"South of West 25 Street, 9 to 10 avenues",Yes,Not Available,NA,NA,NA,NA,,NA,"Chelsea Recreation Center, New York, NY 10001, USA","10 Avenue Rd, Toronto, ON M5R 2E8, Canada"
233,Cherry Tree Washington Playground,"99 to 100 streets, 3 Avenue",Yes,Not Available,NA,NA,NA,NA,,NA,"Playground, 10525 SE Cherry Blossom Dr, Portland, OR 97216, USA","100 3rd St, Etobicoke, ON M8V 1H5, Canada"
234,Col. Charles Young Playground,West 144 Street & Lenox Avenue,Yes,No,40.8195904,-73.9361885,41.628064,-87.6560306,1,11.09213013,"Colonel Charles Young Playground, New York, NY 10037, USA","W 144th St, Riverdale, IL 60827, USA"
235,Coleman Square Playground,Between Cherry & Monroe streets,Yes,Not Available,40.7112051,-73.9936545,39.099582,-94.575511,1,33.17019538,"Coleman Square Playground, Monroe St, New York, NY 10002, USA","On 12th Between Cherry and Holmes Eastbound, Kansas City, MO 64106, USA"
236,Columbus Park,"Baxter, Mulberry, Bayard & Worth streets",Yes,Yes,41.389954,-71.8303537,NA,NA,,NA,"Columbus Park, Westerly, RI 02891, USA",NA
237,Corporal John A. Seravalli,Hudson & Horatio streets,Yes,Not Available,40.7392063,-74.0048564,42.2528649,-73.790959,,0.323767639,"Corporal John A. Seravalli Playground, Horatio St, New York, NY 10014, USA","Hudson, NY, USA"
238,De Witt Clinton Park,"West 52 to West 54 streets, 11 to 12 avenues",Yes,Not Available,40.768136,-73.9943891,NA,NA,1,NA,"De Witt Clinton Park, New York, NY 10019, USA",NA
239,Downing Street Playground,"downing to carmine streets, Avenue of the Americas",Yes,Not Available,NA,NA,NA,NA,,NA,NA,NA
240,Dry Dock Playground,"East 10 Street & Szold Place, Avenue D",Yes,Not Available,NA,NA,NA,NA,,NA,NA,"E 10th St, Kinsley, KS 67547, USA"
241,Dyckman House Museum,Broadway & West 204 Street,Yes,No,NA,NA,41.1115472,-73.8583806,,NA,NA,"Broadway, New York, USA"
242,East River Park (10th Street),Northern extreme of park,Yes,Not Available,35.3599567,-93.5415784,40.142144,-76.964023,,79.2769749,"10th St, Scranton, AR 72863, USA","Whitetail Xtreme Hunts, 39 S York Rd, Dillsburg, PA 17019, USA"
243,East River Park (Tennis Courts),East River Park at Broome Street,Yes,Not Available,39.1510196,-94.5833899,NA,NA,,NA,"Tennis Ct, North Kansas City, MO 64116, USA",NA
244,East River Park (Track Building),East 6 Street & FDR Drive,Yes,No,NA,NA,43.9719586,-92.0560338,,NA,NA,"E 6th St, St Charles, MN 55972, USA"
245,East River Playround,"FDR Drive, East 106 to East 107 streets",Yes,No,40.7892847,-73.9380028,NA,NA,,NA,"East River Playground, E 106th St, New York, NY 10029, USA",NA
246,Fort Tryon Park (Anne Loftus Playground),Broadway & Dyckman Street,Yes,Not Available,NA,NA,41.1115472,-73.8583806,,NA,NA,"Broadway, New York, USA"
247,Fort Tryon Park (CafŽ),One Margaret Corbin Drive,Yes,No,NA,NA,48.8632856,-99.622883,,NA,"Robert Bendheim Playground, 1184 5th Ave, New York, NY 10029, USA","100th St NE & 5th Ave NE, Rolla, ND 58367, USA"
248,Fort Tryon Park (The Cloisters),"Riverside Drive to Broadway, West 192 to Dyckman streets",Yes,Not Available,NA,NA,40.8158821,-73.9623705,,NA,NA,"Riverside Dr, New York, NY, USA"
249,Fort Washington Park (Lily Brown Playground),"West 162 Street, east of Riverside Drive",Yes,Not Available,40.1416782,-75.1926937,35.5888502,-82.5700538,,33.58785163,"Fort Washington, PA, USA","162 Riverside Dr, Asheville, NC 28801, USA"
250,Frederick Douglass Playground,West 100-101 Street Amsterdam Avenue,Yes,Not Available,40.7969119,-73.9677592,40.7741609,-73.9859188,1,0.000413149,"Frederick Douglass Playground, 101 Amsterdam Ave, New York, NY 10023, USA","100 Amsterdam Ave, New York, NY 10023, USA"
251,Frederick E. Samuel Playground,"Lenox Avenue, West 150-151 streets",Yes,Not Available,40.817202,-73.9391049,43.0928727,-75.6546064,1,3.903916499,"Fred Samuel Playground, New York, NY 10030, USA","Lenox Ave & West St, Oneida, NY 13421, USA"
252,Frederick Johnson Park,"7 Avenue, West 150-151 streets",Yes,No,40.1061426,-104.9383031,37.7891138,-89.5307414,,35.6997642,"Johnson St, Frederick, CO 80530, USA","150 IL-151, Ava, IL 62907, USA"
253,General Douglas MacArthur Park,East 49 Street & East River Drive,Yes,Not Available,-29.6818257,152.9290503,25.8671713,-80.2711956,,12954.03976,"General Douglas MacArthur Park, Grafton NSW 2460, Australia","E 49th St, Hialeah, FL, USA"
254,Hamilton Fish Park (Recreation Center),Between Easton Houston & Stanton streets,Yes,Not Available,NA,NA,29.7604267,-95.3698028,,NA,NA,"Houston, TX, USA"
255,Hansborough Recreation Center,35 West 134 Street,Yes,No,NA,NA,35.3343358,-97.5128357,,NA,NA,"35 SW 134th St, Oklahoma City, OK 73170, USA"
256,Happy Warrior Playground,West 98 Street & Amsterdam Aveue,Yes,No,NA,NA,44.8263946,-93.3188017,,NA,NA,"W 98th St, Bloomington, MN, USA"
257,Highbridge Park (Quisqueya Playground),West 180 Street & Amsterdam Avenue,Yes,Yes,NA,NA,40.4554989,-94.1199107,,NA,NA,"W 180th St, Missouri, USA"
258,Highbridge Park (Recreation Center),"West 155 & Dyckman streets, Edgecombe & Amsterdam avenues",Yes,Not Available,40.6419877,-74.9132045,NA,NA,,NA,"Gebhardt Field at Clinton Community Center Park, Halstead St, Clinton, NJ 08809, USA","155, Costa Rica"
259,Highbridge Park (Wallenberg Playground),West 188 Street & Amsterdam Avenue,Yes,Yes,NA,NA,NA,NA,,NA,NA,"188th St, Torrance, CA 90504, USA"
260,Highbridge Park (Wallenberg Playground),West 189 St & Amsterdam Ave,Yes,Yes,NA,NA,NA,NA,,NA,NA,NA
261,Holcombe Rucker,"West 155 St, 8 Ave to Harlem River Drive",Yes,No,45.2242908,-91.1172986,40.8280552,-73.9346918,,75.53878771,"Holcombe, WI 54745, USA","Harlem River Dr, New York, NY, USA"
262,Howard Bennett Playground,"West 135 to West 136 streets, Lenox to 5 avenues",Yes,Not Available,40.8136794,-73.9387312,NA,NA,1,NA,"Howard Bennett Playground, 32 W 136th St, New York, NY 10037, USA",NA
263,Inwoood Hill Park (Nature Center),Gaelic Field and Area around Salt Marsh West of Indian Road (at 218th St),Yes,No,NA,NA,NA,NA,,NA,NA,NA
264,Inwood Hill Park (Payson Playground),Payson & Dyckman streets,Yes,No,40.8677145,-73.9212019,34.2308684,-111.3251355,,248.2441508,"Inwood, New York, NY, USA","Payson, AZ 85541, USA"
265,Inwood Hill Park (Tennis Courts),Tennis courts & ballfields along Seaman Avenue from 207th Street to 214th Street,Yes,No,40.8677145,-73.9212019,37.2905087,-76.7298653,,10.047167,"Inwood, New York, NY, USA","Tennis Ct, Williamsburg, VA 23185, USA"
266,J. Hood Wright Park,"Ft. Washington & Haven avenues, West 173 St",Yes,Yes,NA,NA,NA,NA,,NA,"J Hood Wright Park, New York, NY 10033, USA","Fort Washington, MD, USA"
267,Jackie Robinson Park,West 149 Street & Bradhurst Avenue,Yes,No,NA,NA,NA,NA,,NA,"Jackie Robinson Park, 85 Bradhurst Ave, New York, NY 10030, USA",NA
268,Jackie Robinson Park (Playground 152 CLII),West 152 & Bradhurst Avenue,Yes,No,NA,NA,NA,NA,,NA,NA,NA
269,Jackie Robinson Park (Rec Center),"Bradhurst & Edgecombe avenues, West 145 to West 155 streets",Yes,Not Available,NA,NA,NA,NA,,NA,NA,"Bradhurst Ave, New York, USA"
270,Jacob Schiff Playground,"Amsterdam Avenue, West 136 Street",Yes,No,NA,NA,40.8174777,-73.946736,2,NA,NA,"W 136th St, New York, NY, USA"
271,John Jay Park & Pool,East 76-East 78 streets & Cherokee Place,Yes,No,40.7693053,-73.9493916,38.979234,-94.439631,1,36.67898948,"John Jay Park, E 76 St. To E 78 St. FDR Drive, New York, NY 10075, USA","E 78th Terrace & E 76th Terrace, Kansas City, MO 64138, USA"
272,James J. Walker Park (Carmine Rec Center),"Hudson, Leroy, Clarkson streets, 7 ave",Yes,No,NA,NA,NA,NA,,NA,NA,NA
273,Little Flower Playground,Madison Street opposite Jefferson Street,Yes,Yes,40.7123939,-73.9884206,43.0730517,-89.4012302,1,36.3843692,"Little Flower Playground, New York, NY 10002, USA","Madison, WI, USA"
274,Marcus Garvey Park (Pelham Fritz Recreation Center),18 Mount Morris Park West,Yes,No,NA,NA,40.8050093,-73.9448633,,NA,NA,"18 Mt Morris Park W, New York, NY 10027, USA"
275,Marcus Garvey Park (pool),"Madison Avenue, East 120 to East 124",Yes,Not Available,NA,NA,43.6728093,-79.4052216,,NA,NA,NA
276,Martin Luther King Houses,"Lenox ave, west 113 to west 114 streets",Yes,No,40.6968447,-73.949496,38.6727119,-90.2934383,,33.08230969,NA,NA
277,May Matthews Playground,West 45 St between 9 & 10 avenues,Yes,No,NA,NA,29.8331559,31.3529387,,NA,NA,"Street 45, Cairo Governorate, Egypt"
278,McCaffrey Playground,"West 43 St, 8 & 9 avenues",Yes,No,40.758985,-73.9913589,38.431024,-86.941794,1,30.14810785,"McCaffrey Playground, W 43rd St, New York, NY 10036, USA","W 43rd St, Jasper, IN 47546, USA"
279,McKinley Playground,"Ave A, East 3-East 4 streets",Yes,No,43.0224445,-88.001753,47.6532648,-117.3469896,,135.8925174,"McKinley Park, West Allis, WI 53214, USA","E 4th Ave & E 3rd Ave, Spokane, WA 99202, USA"
280,Morningside Park,West 123 St & Morningside ave,Yes,Yes,33.9596334,-118.3286614,41.6661463,-87.8912235,,234.5665078,"Morningside Park, Inglewood, CA, USA","W 123rd St, Palos Park, IL 60464, USA"
281,Morningside Park,"Athletic Fields and Lawns from 114th St to 110th St along Manhattan Ave, East of Upper Path",Yes,Not Available,33.9596334,-118.3286614,NA,NA,,NA,"Morningside Park, Inglewood, CA, USA",NA
282,Morningside Playground,West 117 St & Morningside Ave,Yes,No,42.4292117,-82.9230744,41.4675749,-81.7687675,,1.110023994,"Playground, Harper Woods, MI 48225, USA","W 117th St, Cleveland, OH, USA"
283,Msgnr. Kett,West 204 St & Nagle Ave,Yes,No,NA,NA,33.8456017,-118.2992222,,NA,NA,"W 204th St, Torrance, CA, USA"
284,Orville & Wilbur Playground,West 156 St & St. Nicholas Avenue,Yes,No,NA,NA,NA,NA,,NA,NA,NA
285,Playground 70,West End Avenue & West 70 Street,Yes,Yes,NA,NA,NA,NA,,NA,"70 Playground, Leeds, West Yorkshire LS12, UK","West End Ave, Nashville, TN, USA"
286,Playground 96 (XCVI),"2 Avenue, East 96 to East 97 Street",Yes,No,NA,NA,NA,NA,,NA,NA,"Av. B-2, 96 - St. Aeroporto, GuaraÌ_ - TO, 77700-000, Brazil"
287,PS 155 Playground,"East 117 to East 118 Streets, 1 to 2 avenues",Yes,Not Available,NA,NA,NA,NA,,NA,NA,NA
288,Renaissance Playground,"West 144 Street, between 7 & 8 avenues",Yes,No,42.4292117,-82.9230744,29.839422,31.3384822,,1438.528968,"Playground, Harper Woods, MI 48225, USA","Street 7, Cairo Governorate, Egypt"
289,Riverside Park (Boat Basin),"Riverside Drive to Hudson River, West 59th St to Clair Place",Yes,Not Available,33.9533487,-117.3961564,40.8158821,-73.9623705,,298.0658064,"Riverside, CA, USA","Riverside Dr, New York, NY, USA"
290,Riverside Park (CafŽ),"105th St, next to Henry Hudson Parkway",Yes,Yes,NA,NA,48.8632856,-99.622883,,NA,"Robert Bendheim Playground, 1184 5th Ave, New York, NY 10029, USA","100th St NE & 5th Ave NE, Rolla, ND 58367, USA"
291,Riverside Park (Claremont),West 124 St & Riverside Drive,Yes,Not Available,43.3747203,-72.3346279,43.3294489,-85.9196777,,0.615014224,"Riverside Park, 43 Washington St, Claremont, NH 03743, USA","W 124th St, Grant, MI 49327, USA"
292,Riverside Park (Classic Playground),72nd to 79th streets between Hudson River and Henry Hudson Parkway,Yes,No,33.9533487,-117.3961564,NA,NA,,NA,"Riverside, CA, USA",NA
293,Riverside Park (Dinosaur Playground),West 97 St & Riverside Drive,Yes,No,33.9533487,-117.3961564,41.7166075,-87.7321699,,230.2892042,"Riverside, CA, USA","W 97th St, Illinois, USA"
294,Rverside Park (Hippo Playground),West 91 St & Riverside Drive,Yes,No,NA,NA,41.7270733,-87.756897,,NA,NA,"W 91st St, Illinois, USA"
295,Riverside Park (Neufeld Playground),West 76 St & Riverside Drive,Yes,No,33.9533487,-117.3961564,43.8501819,-85.8749985,,311.959642,"Riverside, CA, USA","W 76th St, Baldwin, MI 49304, USA"
296,Riverside Park (River Run Playground),West 83 St & Riverside Drive,Yes,No,40.0560835,-83.0842436,38.9780838,-94.9017482,,12.73926641,"Playground, Stonehaven Pl, Upper Arlington, OH 43220, USA","W 83rd St, Kansas, USA"
297,Riverside Park (Riverbank Playground),West 142 Street & Riverside Drive,Yes,No,33.9533487,-117.3961564,41.6370323,-87.6415624,,228.6248859,"Riverside, CA, USA","W 142nd St, Thornton Township, IL, USA"
298,Riverside Park (Ten Mile River Playground),West 148 St & Hudson River,Yes,Not Available,33.9533487,-117.3961564,41.6208231,-87.6681095,,227.9390386,"Riverside, CA, USA","W 148th St, Harvey, IL 60426, USA"
299,Riverside Park (Tennis Courts),Riverside Drive & West 96th Street,Yes,Not Available,39.1510196,-94.5833899,40.8158821,-73.9623705,,34.33116191,"Tennis Ct, North Kansas City, MO 64116, USA","Riverside Dr, New York, NY, USA"
300,Robert Moses Playground,"1 Ave, East 41 to East 42 St",Yes,No,40.7480467,-73.9692285,-10.3345449,-48.2997164,,1311.265203,"Robert Moses Playground, E 42nd St, New York, NY 10016, USA","Av. P 1, 41 - Jardim Santa Barbara, Palmas - TO, 77060-344, Brazil"
301,Roger Morris Park (Morris Jumel Mansion),"Jumel Terrace to Edgecombe Ave, West 160 to West 162 St",Yes,No,NA,NA,NA,NA,,NA,NA,NA
302,Sara D. Roosevelt Park,East Houston St to Canal St,Yes,Yes,NA,NA,NA,NA,,NA,"Sara D. Roosevelt Park, New York, NY 10002, USA","Houston, TX, USA"
303,Sheltering Arms Park,"West 129 St, Amsterdam Ave",Yes,No,NA,NA,NA,NA,,NA,NA,"129 Amsterdam Ave, New York, NY 10023, USA"
304,Sheltering Arms Park (Pool),"West 129 St, Amsterdam Ave",Yes,No,NA,NA,NA,NA,,NA,NA,"129 Amsterdam Ave, New York, NY 10023, USA"
305,Sol Bloom Playground,"Columbus Ave, West 91 to West 92 St, Central Park West",Yes,No,NA,NA,NA,NA,,NA,"Sol Bloom Playground, W 92nd St, New York, NY 10025, USA","91st Ave NW, Columbus, ND 58727, USA"
306,Sol Lain Playground,"Broadway, Henry St, Samuel Dickstein Place",Yes,No,40.7143044,-73.9839212,NA,NA,1,NA,"Sol Lain Playground, Henry St, New York, NY 10002, USA",NA
307,St Nicholas Park South,West 129 & 7 Ave,Yes,No,52.3502541,-7.4119039,43.6118917,-112.1298471,,915.0633375,"St Nicholas Park, Carrick-On-Suir, Co. Tipperary, Ireland","W 129 N, Idaho Falls, ID 83402, USA"
308,St Nicholas Park,West 133 St & St Nicholas Ave,Yes,No,52.3501991,-7.4113008,38.8257134,-95.8199323,,1195.681272,"St Nicholas Park, Carrick-On-Suir, Co. Tipperary, Ireland","W 133rd St, Kansas, USA"
309,St Nicholas Park,West 129 St & St Nicholas Terrace,Yes,No,52.3501991,-7.4113008,38.8923642,-94.7119418,,1174.877613,"St Nicholas Park, Carrick-On-Suir, Co. Tipperary, Ireland","W 129th St, Overland Park, KS 66213, USA"
310,St Nicholas Park (Arlington Edinboro Playground),West 140 St & St Nicholas Ave,Yes,No,NA,NA,40.5150292,-93.99842,,NA,NA,"W 140th St, Eagleville, MO 64442, USA"
311,St Vartan Park,"East 35-East 36 St, between 1 & 2 avenues",Yes,Yes,40.7449676,-73.9736364,29.8894662,31.3071263,1,1142.875467,"St Vartan's Park, E 335 Street, New York, NY 10016, USA","Street 35, Monshaat Nasir, Qism Helwan, Cairo Governorate, Egypt"
312,Stanley Isaacs,East 96-97 Streets & FDR Drive,Yes,Yes,-36.3080978,146.846544,36.0234368,-95.8724539,,17556.23759,"Isaacs Ave, Yackandandah VIC 3749, Australia","E 97th St & E 96th St, Tulsa, OK 74133, USA"
313,Tecumseh Playground,West 77 St & Amsterdam Ave,Yes,No,40.7817253,-73.978687,41.7536803,-87.6872304,1,13.3240873,"Tecumseh Playground, Amsterdam Ave, New York, NY 10024, USA","W 77th St, Chicago, IL, USA"
314,Thomas Jefferson Park,"1 Ave to FDR Drive, East 111 to East 114 Streets",Yes,Not Available,30.327798,-81.7879294,NA,NA,,NA,"Thomas Jefferson Park, 320 Jackson Ave N, Jacksonville, FL 32220, USA",NA
315,Tompkins Square,"Avenues A to B, East 7 to East 10 St",Yes,Not Available,28.5753447,-81.2795925,NA,NA,,NA,"Tompkins Square, Orlando, FL 32807, USA",NA
316,Union Square Park,"Broadway to 4 Avenue, East 14 Street to East 17 streets",Yes,Not Available,42.3796536,-71.0956018,NA,NA,,NA,"Union Square, Somerville, MA 02143, USA",NA
317,Vesuvio Playground,Spring & Thompson Streets,Yes,Yes,40.725367,-74.0025609,36.4214066,-116.4221616,1,182.5722816,"Vesuvio Playground, Thompson St, New York, NY 10012, USA","Spring, Amargosa Valley, NV 89020, USA"
318,Wagner Pool,East 124 Street between 1 & 2 Ave,Yes,No,NA,NA,32.9744973,-91.7396503,,NA,NA,"Between Rd, 1, LA, USA"
319,West 59th St Recreation Center & Pool,"West 59 to West 60 St, Amsterdam to West End Ave",Yes,Not Available,37.440889,-122.154433,NA,NA,,NA,"Lane 59 E, Palo Alto, CA 94301, USA",NA
320,100% Playground,"Glenwood Road, East 100 & East 101 Streets",Yes,No,NA,NA,NA,NA,,NA,NA,NA
321,Bildersee Playground,Flatlands Ave btwn East 81 & East 82 St,Yes,Not Available,NA,NA,NA,NA,,NA,"Bildersee Playground, E 81st St, Brooklyn, NY 11236, USA",NA
322,Bill Brown Memorial Playground,"Bedford Ave, Ave X to Ave Y, E 24 St",Yes,No,NA,NA,NA,NA,,NA,NA,"Bedford, TX, USA"
323,Breukelen Playground,Louisiana & Flatlands Ave,Yes,No,52.1710222,5.001329,30.9842977,-91.9623327,,2054.342387,"3621 Breukelen, Netherlands","Louisiana, USA"
324,Brevoort Playground,Ralph Ave & Chauncy St,Yes,Not Available,40.6805498,-73.9225717,40.634696,-73.9188247,1,0.000171814,"Brevoort Playground, Ralph Ave, Brooklyn, NY 11233, USA","Ralph Ave, Brooklyn, NY, USA"
325,Bridge Park 2,Bridge & Prospect St,Yes,No,30.8114215,73.4536994,39.2187286,-79.9130054,,1289.400986,"Bridge, Okara, Pakistan","Co Rte 2/2, Moatsville, WV 26405, USA"
326,Brownsville Playground,Linden Blvd & Hegeman Ave,Yes,No,25.8159583,-80.2299094,40.6578786,-73.896138,2,94.00533032,"Playground, NW 21st Ave, Miami, FL 33142, USA","Linden Blvd, New York, NY, USA"
327,Bushwick Inlet Park,Kent Ave. btwn N 9 St. and N 12 St,Yes,Not Available,40.7222436,-73.9615144,NA,NA,1,NA,"Bushwick Inlet Park, Brooklyn, NY 11211, USA",NA
328,Bushwick Playground & Pool,Flushing & Bushwick Ave btwn Garden & Beaver,Yes,Not Available,40.7018076,-73.9394723,40.7674987,-73.833079,1,0.006989093,"Bushwick Playground, 817 Flushing Ave, Brooklyn, NY 11206, USA","Flushing, Queens, NY, USA"
329,Cadman Plaza & Brooklyn War Memorial,"Tillary, Cadman Plaza West, Cadman Plaza East, Prospect St",Yes,No,40.6982776,-73.9914896,NA,NA,1,NA,"Cadman Plaza W, Brooklyn, NY 11201, USA",NA
330,Campiz Playground,Hope St & Metropolitan Ave,Yes,No,40.713785,-73.9541673,41.6957277,-71.2795162,1,2.626354123,"Jaime Campiz Playground, Marcy Ave, Brooklyn, NY 11211, USA","Hope St, Bristol, RI, USA"
331,Canarsie Park,"Paerdegat Ave, Seaview Ave, East 93rd St, Skidmore Ave",Yes,No,40.6303632,-73.8926247,NA,NA,1,NA,"Canarsie Park, Brooklyn, NY 11236, USA",NA
332,Carroll Park,Court & Smith St,Yes,Not Available,35.1732972,-88.6011376,41.7172937,21.7828041,,722.3521281,"Carroll Park, Selmer, TN 38375, USA","Court, Blagoj Gjorev 53, Veles 1400, Macedonia (FYROM)"
333,Carver Playground,Ralph Ave & Sumpter St,Yes,No,40.6802881,-73.9207346,40.634696,-73.9188247,1,8.71E-05,"Carver Playground, Marion St, Brooklyn, NY 11233, USA","Ralph Ave, Brooklyn, NY, USA"
334,Century Playground,Brighton Beach Ave & West 2 St,Yes,Not Available,40.5767757,-73.970055,40.5775615,-73.961412,1,6.79E-06,"Century Playground, W Brighton Ave, Brooklyn, NY 11224, USA","Brighton Beach Ave, Brooklyn, NY 11235, USA"
335,Chester Playground,"Chester Street, Sutter Ave",Yes,No,40.6687403,-73.9118244,36.2198886,-115.1881888,1,183.6324239,"Chester Playground, Chester St, Brooklyn, NY 11212, USA","Sutter Creek Ave, North Las Vegas, NV 89032, USA"
336,City Line Park,Atlantic & Fountain Aves,Yes,No,45.9826113,-93.7893675,41.4036007,-95.0138776,,5.607044728,"City Line, Minnesota, USA","Atlantic, IA 50022, USA"
337,Col. David Marcus Memorial Playground,"Coean Parkway, Ave P, East 3 St",Yes,Not Available,NA,NA,37.6857796,-122.4842166,,NA,NA,"3 Ocean Grove Ave, Daly City, CA 94015, USA"
338,Columbus Park,"Adams, Johnson, Fulton, Joralemon St",Yes,No,NA,NA,NA,NA,,NA,"Columbus Park, Westerly, RI 02891, USA",NA
339,Com. John Barry Park & Playground,South of Flushing Ave,Yes,No,NA,NA,NA,NA,,NA,NA,"Flushing Ave, New York, USA"
340,Com. John Barry Park & Playground (Athletic Area),South of Flushing Ave,Yes,No,NA,NA,NA,NA,,NA,NA,NA
341,Comm. Eugene S. Sarsfield Playground,"East 38 St & Ryder St, Ave M",Yes,Not Available,NA,NA,NA,NA,,NA,NA,"E 38th St, Indianapolis, IN, USA"
342,Coney Island,Brighton 2nd,Yes,Yes,40.5749261,-73.9859414,39.985252,-104.8202615,,18.18219995,"Coney Island, Brooklyn, NY, USA","2nd Pl, Brighton, CO 80601, USA"
343,Coney Island,W 27 St.,Yes,Yes,40.5749261,-73.9859414,36.8756394,-76.2967379,,8.548298759,"Coney Island, Brooklyn, NY, USA","W 27th St, Norfolk, VA, USA"
344,Coney Island,W 33 St.,Yes,Yes,40.5749261,-73.9859414,34.7527994,-96.7231451,,132.3788807,"Coney Island, Brooklyn, NY, USA","W 33rd St, Ada, OK 74820, USA"
345,Coney Island Beach,Corbin Pl to Coney Island Ave,Yes,No,40.5721302,-73.9793298,NA,NA,,NA,"Coney Island Beach, Brooklyn, NY, USA",NA
346,Coney Island Beach,Stillwell Ave,Yes,Yes,40.5721302,-73.9793298,40.5905519,-73.9840847,,8.76E-05,"Coney Island Beach, Brooklyn, NY, USA","Stillwell Ave, Brooklyn, NY, USA"
347,Coney Island Beach,West 16th St.,Yes,Yes,NA,NA,NA,NA,,NA,"Coney Island Beach, Brooklyn, NY, USA","W 16th St, Yuma, AZ 85364, USA"
348,Coney Island Beach,W 22 St,Yes,Yes,NA,NA,NA,NA,,NA,"Coney Island Beach, Brooklyn, NY, USA","22nd St, York Township, IL, USA"
349,Cooper Park,"Sharon, Olive St, Maspeth & Morgan Aves",Yes,Not Available,40.700424,-89.5385254,40.714593,-73.938755,2,0.221033147,"Cooper Park Rd, East Peoria, IL 61611, USA","Olive St, Brooklyn, NY 11211, USA"
350,Cypress Hills Park,Blake & Euclid Ave,Yes,No,29.9965496,-95.7370784,31.8970099,-92.2413776,,6.643440591,"Hillside Park Way, Cypress, TX 77433, USA","Blake, Olla, LA 71465, USA"
351,Digilio Playground,McDonald Ave & Ave F,Yes,No,NA,NA,40.6235909,-73.9758061,2,NA,NA,"McDonald Ave, Brooklyn, NY, USA"
352,Dimattina Playground,Hicks & Rapelye St,Yes,No,40.6803115,-74.0022113,31.184905,-93.0159912,1,180.5435693,"Dimattina Playground, Brooklyn, NY 11231, USA","Hicks, LA 71446, USA"
353,Dr. Martin Luther King Jr. Park,"Dumont, Blake, Miller Ave",Yes,No,37.9444922,-121.2577254,NA,NA,,NA,"Dr M.L.K. Jr Blvd, Stockton, CA, USA",NA
354,Dr. Richard Greene Playground,Mother Gaston Blvd (Stone Ave) & Sutter Ave,Yes,No,NA,NA,NA,NA,,NA,NA,NA
355,Dyker Beach Park,"Shore Prkwy, 86 St, 7 to 14 Ave",Yes,No,40.6120808,-74.0140275,NA,NA,1,NA,"Dyker Beach Park, 86 St Belt Parkway, Brooklyn, NY 11228, USA",NA
356,Edmonds Playground,"DeKalb Ave, Adelphi St",Yes,No,40.6893545,-73.9714325,41.9294736,-88.7503647,1,18.3276361,"Edmonds Playground, Dekalb Ave, Brooklyn, NY 11238, USA","DeKalb, IL, USA"
357,Ethan Allen Playground,New Jersey Ave & Vermont St/Worthman,Yes,Not Available,40.6557721,-73.8870206,38.9855357,-74.8226626,1,1.562743326,NA,"New Jersey Ave, New Jersey 08260, USA"
358,Fermi Playground,Troutman St & Central Ave,Yes,No,40.7004831,-73.9285422,NA,NA,1,NA,"Fermi Playground, Troutman St, Brooklyn, NY 11221, USA","Troutman St, New York, USA"
359,Fort Greene Park,Myrtle Ave & St. Edwards Plaza,Yes,Yes,NA,NA,NA,NA,,NA,"Fort Greene Park, Washington Park, Brooklyn, NY 11205, USA","Myrtle Ave, Boonton, NJ 07005, USA"
360,Fox Playground,"Ave H, East 54 to E 55 St",Yes,Yes,40.6325221,-73.9240414,-10.3214578,-48.3234738,1,1304.450807,"Fox Playground, Avenue H, Brooklyn, NY 11234, USA","Av. H, 54 - Jardim Aureny III (Taquaralto), Palmas - TO, Brazil"
361,Friends Field,"Ave L, East 4 St, McDonald Ave, Ave M",Yes,Not Available,51.9728951,0.7775804,NA,NA,,NA,"Friends Field, Bures, Suffolk CO8 5LH, UK",NA
362,Fulton Park,"Fulton, Chauncey St, Stuyvesant, Lewis Ave",Yes,No,45.4712589,-122.679664,40.1905499,-74.7805328,,252.9413732,"Fulton Park, Portland, OR 97219, USA","Lewis Ave, Morrisville, PA 19067, USA"
363,Galapo Playground,"Bedford Ave, Gravesend Neck Rd",Yes,No,40.5979212,-73.9467281,40.6081026,-73.9481894,1,1.49E-05,"Galapo Playground, Gravesend Neck Rd, Brooklyn, NY 11229, USA","Bedford Ave, Brooklyn, NY, USA"
364,Garibaldi Playground,82 to 83 St at 18 Ave,Yes,Not Available,40.6090667,-74.0001737,13.7873829,100.6456852,1,4684.296004,"Garibaldi Playground, 18th Ave, Brooklyn, NY 11214, USA","Soi Nawamin 83 - Soi 18, Khwaeng Nawamin, Khet Bueng Kum, Krung Thep Maha Nakhon 10230, Thailand"
365,Glenwood Playground,Ralph Ave & Farragut Rd,Yes,Yes,NA,NA,NA,NA,,NA,"Glenwood Playground, Glenwood Rd, Brooklyn, NY 11234, USA","Ralph Ave, Brooklyn, NY, USA"
366,Gowanus Playground,Wyckoff St btwn Bond & Hoyt St,Yes,No,NA,NA,NA,NA,,NA,"Thomas Greene Playground, Nevins St, Brooklyn, NY 11217, USA","Wyckoff, NJ, USA"
367,Gravesend Park,18 Ave & 56 St,Yes,No,NA,NA,NA,NA,,NA,"Gravesend Park, 18th Ave. and 19th Avenue, Brooklyn, NY 11204, USA","18th Ave, North Dakota, USA"
368,Greene Playground,Greene & Washington Ave,Yes,No,NA,NA,NA,NA,,NA,"Greene Playground, Greene Ave, Brooklyn, NY 11238, USA","Greene County, OH, USA"
369,Greenwood Playground,"Fort Hamilton Pkwy, Greenwood, East 5 St",Yes,Not Available,40.6502804,-73.9764294,40.6094454,-74.0285434,1,0.002128075,"Greenwood Playground, Brooklyn, NY 11218, USA","Fort Hamilton, Brooklyn, NY, USA"
370,Hamilton-Metz Field,"Albany, E New York, Lefferts Ave",Yes,No,41.6148149,-84.8840446,40.6626057,-73.9467655,2,10.41457778,"E Metz Rd, Hamilton, IN 46742, USA","Lefferts Ave, Brooklyn, NY, USA"
371,Harry Maze Memorial Park,Ave D btwn East 56 & East 57 St,Yes,No,NA,NA,51.732512,-1.2171341,,NA,NA,"56 Between Towns Rd, Oxford, Oxfordshire OX4 3LR, UK"
372,Hattie Carthan Playground,East of Marcy St,Yes,No,40.6857428,-73.9452692,35.6885097,-105.9352118,1,159.8612,"Hattie Carthan Playground, 308 Monroe St, Brooklyn, NY 11216, USA","E Marcy St, Santa Fe, NM 87501, USA"
373,Heckscher Playground,Grove St to Linden St,Yes,Yes,40.7684844,-73.9772017,NA,NA,1,NA,"Heckscher Playground, 65th St Transverse, New York, NY 10019, USA",NA
374,Herbert Von King Park,"Greene, Marcy, Lafayette, Tompkins Ave",Yes,Yes,40.689612,-73.946732,NA,NA,1,NA,"Herbert Von King Park, 670 Lafayette Ave, Brooklyn, NY 11216, USA",NA
375,Herman Dolgon Playground,Ave V & Hostrand Ave,Yes,No,40.5982571,-73.9398397,38.5656096,-97.9590939,1,48.822677,NA,NA
376,J.J. Byrne Memorial Park,"3 to 4 St, 4 to 5 Ave",Yes,No,40.8627738,-73.3255504,26.1616275,32.7080971,1,1558.816165,NA,NA
377,Jackie Robinson Park,Malcolm X Blvd btwn Chauncey and Marion St,Yes,Yes,40.824293,-73.9421716,NA,NA,1,NA,"Jackie Robinson Park, 85 Bradhurst Ave, New York, NY 10030, USA",NA
378,Jackie Robinson Playground,"Sullivan Place & Franklin Ave, Montgomery St",Yes,No,40.6656832,-73.9593103,40.6643685,-73.9560187,1,4.33E-06,"Jackie Robinson Playground, Montgomery St, Brooklyn, NY 11225, USA","Sullivan Pl, Brooklyn, NY 11225, USA"
379,Jesse Owens Playground,John J. Carty Park,Yes,Not Available,40.6912345,-73.9324918,40.6132391,-74.0301958,1,0.007620463,"Jesse Owens Playground, Stuyvesant Ave, Brooklyn, NY 11221, USA","John J. Carty Park, Fort Hamilton Pkwy, Brooklyn, NY 11209, USA"
380,John Paul Jones Park,"Shore Prkwy, Fort Hamilton Parkway, 101 St",Yes,Not Available,40.6110485,-74.033835,NA,NA,1,NA,"John Paul Jones Park, 101st St, Brooklyn, NY 11209, USA",NA
381,Kaiser Park,"South of Gravesend Bay, Southeast of Path, Northeast of Neptune Ave",Yes,No,40.5789776,-73.9970482,NA,NA,1,NA,"Kaiser Park, Neptune Ave, Brooklyn, NY 11224, USA",NA
382,Kennedy King Playground,East 93 St & Lenox Rd,Yes,No,40.6585484,-73.9222043,41.4599879,-81.6214291,1,6.170462874,"Kennedy King Playground, E 93rd St, Brooklyn, NY 11212, USA","E 93rd St, Cleveland, OH, USA"
383,La Guardia Playground West,"Havemeyer, Roebling St & South 4",Yes,Not Available,NA,NA,NA,NA,,NA,"La Guardia Playground, S 4th St, Brooklyn, NY 11211, USA",NA
384,Leif Ericson Park & Square,CLF behind CS adjacent to 5th Ave to 7th ave (highway) btwn 66th and 67th St,Yes,No,NA,NA,NA,NA,,NA,NA,NA
385,Lincoln Terrace Park,Buffalo Ave/Protal St/New York Ave,Yes,No,NA,NA,NA,NA,,NA,"Park Blvd, Lincoln, NE, USA","Buffalo, NY, USA"
386,Lincoln Terrace Park (Arthur S. Somers Playground),"East New York, Rochester Ave, Eastern Prkwy, Buffalo Ave",Yes,No,NA,NA,NA,NA,,NA,NA,"East Ave, Rochester, NY, USA"
387,Linden Park,"Stanley Ave, Linden Blvd",Yes,No,38.9051265,-94.640237,53.7463657,-1.5072385,,1382.209108,"Linden, Kansas 66209, USA","Linden Ct, Rothwell, Leeds, West Yorkshire LS26 0GF, UK"
388,Lindower Park,"Mill & Strickland Ave, 60 St",Yes,Not Available,40.6123076,-73.9113651,44.1024575,-85.1474375,1,39.21557696,"Lindower Park, Strickland Ave, Brooklyn, NY 11234, USA","Mill, Marion, MI 49665, USA"
389,Luna Park Playground,West 12 St & Surf Ave,Yes,No,NA,NA,37.0239219,-94.7507402,,NA,NA,"W 12th St, Baxter Springs, KS 66713, USA"
390,Maria Hernandez Park,"Knickerbocker to Irving Ave, Starr to Suydam St",Yes,No,40.7031595,-73.9238951,NA,NA,1,NA,"Maria Hernandez Park, Knickerbocker Ave, Brooklyn, NY 11237, USA",NA
391,Marine Park,Burnett St btwn Ave U and Ave X/west of East 33rd St,Yes,No,40.5954615,-73.9212858,NA,NA,1,NA,"Marine Park, Fillmore Ave, Brooklyn, NY 11234, USA",NA
392,Marine Park Nature Center,East 33rd St & Ave U,Yes,Yes,NA,NA,NA,NA,,NA,"Marine Park Salt Marsh Nature Center, 3301 Avenue U, Brooklyn, NY 11234, USA","E 33rd St, Edmond, OK 73013, USA"
393,Marion-Hopkinson Playground,Hopkinson Ave & Marion St,Yes,No,NA,NA,40.6692495,-73.9135787,,NA,NA,"Thomas S Boyland St, Brooklyn, NY, USA"
394,Martinez Playground,"Scholes St, Graham Ave",Yes,No,40.7091573,-73.9439381,40.708466,-73.943466,1,3.26E-07,"Martinez Playground, 195 Graham Ave, Brooklyn, NY 11206, USA","Graham Av/Scholes St, Brooklyn, NY 11206, USA"
395,McCarren Park,12th St/Driggs Ave/Lorimer St/ Bedford Ave,Yes,No,40.7213441,-73.9526361,NA,NA,1,NA,NA,NA
396,McDonald Playground,"McDonald Ave, btwn Ave s & T",Yes,Not Available,42.3674971,-71.2309007,NA,NA,,NA,"Spray Park, Waltham, MA 02453, USA",NA
397,McKinley Park,"Fort Hamilton Pkwy, 73 to 78 St, 7 Ave",Yes,No,63.6515264,-148.8162163,40.6094454,-74.0285434,,1723.263617,"McKinley Park, AK, USA","Fort Hamilton, Brooklyn, NY, USA"
398,McLaughlin Park,"Tillary St, Jay St, Cathedral Pl, Bridge St",Yes,No,40.6963853,-73.986125,NA,NA,1,NA,"McLaughlin Park, Cathedral Pl, Brooklyn, NY 11201, USA",NA
399,Mellet Playground,Ave V btwn East 13 & East 14 St,Yes,No,40.5969589,-73.9573817,29.840364,31.3375167,1,1132.614567,"Mellett Playground, Brooklyn, NY 11229, USA","Street 13, Cairo Governorate, Egypt"
400,Metropolitan Pool,Southeast corner of Bedford & Metropolitan Ave,Yes,No,53.3738673,-3.0915022,33.780065,-117.9039335,,2249.61208,"Pool Ln, Birkenhead, Wirral, Merseyside CH49 5LR, UK","Bedford, Garden Grove, CA 92840, USA"
401,Monsignor Mcgolrick Park,"Driggs to Nassau Ave, Russell to Monitor",Yes,Not Available,40.7244435,-73.9433581,43.7232522,-111.1113326,1,111.4596453,"Msgr. McGolrick Park, Brooklyn, NY 11222, USA","Driggs, ID, USA"
402,Mt. Prospect Park,"Eastern Pkwy, Underhill Ave",Yes,No,52.3327,-6.49198,40.7625797,-73.5337516,,775.6813625,"Mount Prospect, Wexford, Ireland","Underhill Ave, Hicksville, NY 11801, USA"
403,Newport Playground,Newport Ave & osburn St,Yes,No,51.2071715,-2.1828989,NA,NA,,NA,"Newport, Warminster, Wiltshire BA12 8RH, UK","Newport Ave, United States"
404,Nostrand Playground,Nostrand & Foster Ave,Yes,No,NA,NA,NA,NA,,NA,NA,"Nostrand Ave, Brooklyn, NY, USA"
405,Ocean Hill Playground,"Bergen St, Rockaway Ave, Dean Street",Yes,No,40.6744138,-73.9121896,40.885978,-74.555825,1,0.136170208,"Ocean Hill Playground, Brooklyn, NY 11233, USA","N Bergen St, Dover, NJ 07801, USA"
406,Oracle Playground,Adelphi & Myrtle Ave,Yes,No,40.6939264,-73.9715243,39.0031656,-76.97192,1,5.072951434,"Oracle Playground, 121 Adelphi St, Brooklyn, NY 11205, USA","Adelphi, MD, USA"
407,Osborn Playground,Linden Blvd & Osborn St,Yes,No,40.656026,-73.905951,40.6578786,-73.896138,1,1.82E-05,"Osborn Playground, 553 Thatford Ave, Brooklyn, NY 11212, USA","Linden Blvd, New York, NY, USA"
408,Paerdegat Park,"Foster Ave, East 40-41 St",Yes,No,40.6382216,-73.9380028,40.678658,-73.723344,1,0.008680029,"Paerdegat Park, E 40th St, Brooklyn, NY 11210, USA","40 Foster Ave, Valley Stream, NY 11580, USA"
409,PS 59 Summer Playground,,Yes,Not Available,NA,NA,NA,NA,,NA,NA,NA
410,Railroad Playground,Ditmas Ave btwn East 91 & East 92 st,Yes,Not Available,NA,NA,NA,NA,,NA,"Playground Ave, Shrewsbury, PA 17361, USA",NA
411,Rappaport Playground,"52-53 St, Fort Hamilton Parkway",Yes,No,NA,NA,NA,NA,,NA,NA,"Fort Hamilton Pkwy, Brooklyn, NY, USA"
412,Red Hook Park,"Otsega, Bay, Hicks, Lorraine, Court, Halleck st",Yes,No,NA,NA,NA,NA,,NA,"Recreation Park of Red Hook, Red Hook, NY 12571, USA",NA
413,Red Hook Park,"Columbia and Bay st, southeast of Halleck st sidewalk and northeasy of henry sidewalk",Yes,No,NA,NA,NA,NA,,NA,"Recreation Park of Red Hook, Red Hook, NY 12571, USA",NA
414,Red Hook Park (Coffey Park Playground,"King, Richards, & Dwight St",Yes,No,40.6772802,-74.0094471,52.6339568,-1.152479,1,871.1272056,"Red Hook, Brooklyn, NY, USA","King Richards Rd, Leicester, Leicester LE3 5QG, UK"
415,Red Hook Park (Recreation Center),"Otsego, Bay, Hicks, Lorraine, Court, Halleck St",Yes,No,40.6772802,-74.0094471,NA,NA,1,NA,"Red Hook, Brooklyn, NY, USA",NA
416,Rodney Playground South,"Rodney, South 3 & South 4 St",Yes,No,40.709785,-73.9559123,42.2054689,-95.9498735,1,32.89601366,"Rodney Playground South, 286 S 3rd St, Brooklyn, NY 11211, USA","3rd St, Rodney, IA 51051, USA"
417,Roebling Playground,"Wilson & Lee Ave, Taylor St",Yes,No,40.7064875,-73.9615144,35.7212689,-77.9155395,1,19.71167947,"Roebling Playground, 525 Bedford Ave, Brooklyn, NY 11211, USA","Wilson, NC, USA"
418,Rolf Henry Playground,New York & Clarkson Ave,Yes,No,40.6557697,-73.9474387,40.7127837,-74.0059413,1,0.003335467,"Rolf Henry Playground, 748 New York Ave, Brooklyn, NY 11203, USA","New York, NY, USA"
419,Rudd Playground,Aberdeen St & Bushwick Ave,Yes,No,NA,NA,NA,NA,,NA,"Rudd Playground, 99 Aberdeen St, Brooklyn, NY 11207, USA","Aberdeen St, Geelong VIC, Australia"
420,Russell Pederson Playground,"Colonial Rd, 83 to 85 St",Yes,Not Available,NA,NA,NA,NA,,NA,NA,NA
421,Saratoga Square Park,"Howard Ave, Halsey, Macon St",Yes,No,NA,NA,NA,NA,,NA,NA,NA
422,Seth Low Playground,"Ave P, Bay Pkwy, West 12 St",Yes,No,40.6081073,-73.9863087,32.0809608,-81.0913453,1,60.58568798,NA,NA
423,Shore Road Park,72nd St to Harbor View,Yes,Not Available,39.1683348,-74.7425098,NA,NA,,NA,"Shore Rd, New Jersey, USA",NA
424,Shore Road Park,"92nd St to 4 Ave, lower half by expressway",Yes,Not Available,39.1683348,-74.7425098,NA,NA,,NA,"Shore Rd, New Jersey, USA",NA
425,Shore Road Park,"92nd St to 4 Ave, upper half by road",Yes,Not Available,39.1683348,-74.7425098,NA,NA,,NA,"Shore Rd, New Jersey, USA",NA
426,Slope Park,6 Ave Bet 18 & 19 Sts,Yes,Not Available,35.4474222,-93.7355412,29.8387038,31.3384993,,701.5050723,"Park, Altus, AR 72821, USA","Street 18, Cairo Governorate, Egypt"
427,Sperandeo Brothers,Atlantic Ave & Elton St,Yes,No,40.6770054,-73.8847238,40.0719932,-85.8630353,,7.247024593,"Sperandeo Brothers Playground, Elton St, Brooklyn, NY 11208, USA","Atlantic Ave, Indiana, USA"
428,Star Spangled Banner Playground,Franklin & Wiloughby Ave,Yes,No,NA,NA,35.9250637,-86.8688899,,NA,NA,"Franklin, TN, USA"
429,Sternberg Park,"Montrose Ave, Boerum, Lorimer, Leonard St",Yes,Yes,40.7064848,-73.947371,56.706922,-2.466115,1,1143.731348,"Sternberg Park, Boerum St, Brooklyn, NY 11206, USA",NA
430,Stockton Playground,Marcy & Park Ave,Yes,No,40.6973709,-73.948184,43.1706253,-75.2915564,1,3.322501699,NA,NA
431,Stroud Playground,Classon Ave & Sterling Place,Yes,No,40.6750147,-73.9618817,NA,NA,1,NA,NA,NA
432,Sunset Park,"41 to 44 St, 5 to 7 ave",Yes,No,40.645532,-74.0123851,-8.8555137,-48.5083212,1,1262.477833,"Sunset Park, Brooklyn, NY, USA","R. W-7, 44 - St. Piassara, GuaraÌ_ - TO, 77700-000, Brazil"
433,Sunset Park (Rec Center),"41 to 44 St, 5 to 7 ave",Yes,No,41.5021199,-87.060687,-8.8555137,-48.5083212,,1941.405911,"Sunset Dr, Valparaiso, IN 46383, USA","R. W-7, 44 - St. Piassara, GuaraÌ_ - TO, 77700-000, Brazil"
434,Surf Playground,West 27 St & Surf Ave,Yes,No,40.5732096,-73.9929283,36.8756394,-76.2967379,1,8.518497723,"Surf Playground, 2727 Surf Ave, Brooklyn, NY 11224, USA","W 27th St, Norfolk, VA, USA"
435,Tiger Playground,Evergreen Ave & Eldert St,Yes,Yes,40.6881981,-73.9111814,43.2773188,-93.4083467,1,50.48051427,"Tiger Playground, 116 Eldert St, Brooklyn, NY 11207, USA","Evergreen Ave, Hanlontown, IA 50444, USA"
436,Tilden Playground,"Tilden Ave, East 48 to East 49 St",Yes,No,NA,NA,43.6947781,-79.5158585,,NA,NA,"49 Tilden Crescent, Etobicoke, ON M9P 1V8, Canada"
437,Underhill Playground,Underhill Ave & Prospect Pl,Yes,No,NA,NA,NA,NA,,NA,"Underhill Playground, Underhill Ave, Brooklyn, NY 11238, USA","Underhill Ave, Yorktown Heights, NY 10598, USA"
438,Underwood Park,Lafayette & Waverly Ave,Yes,Yes,NA,NA,NA,NA,,NA,"Underwood Park, Leggett, CA 95585, USA","Lafayette, LA, USA"
439,Van Voorhees Lower Park,"Congress, Columbia, West/South BQE",Yes,Not Available,NA,NA,NA,NA,,NA,"E Voorhees St, Harmony, IN, USA",NA
440,Washington Hall Playground,"Park, Washington Ave to Hall St",Yes,Yes,NA,NA,NA,NA,,NA,"Washington, DC, USA",NA
441,West 2nd St Comfort Station,W 2nd St,Yes,No,NA,NA,33.3909024,-104.7074011,,NA,NA,"W 2nd St, Roswell, NM, USA"
442,West 8nd St CS,W 8 St,Yes,No,NA,NA,33.4242225,-94.057226,,NA,NA,"W Dr Martin Luther King Jr Blvd, Texarkana, TX 75501, USA"
443,William E. Kelly Memorial Park,"Ave S, East 14 & East 15 St",Yes,No,39.973534,-75.190743,47.3766659,-100.2472338,,185.4965063,"Ellen Phillips Samuel Memorial, Kelly Dr, Philadelphia, PA 19130, USA","14th Ave SE, Denhoff, ND 58430, USA"
444,William Sheridan Playground,"Wythe Ave, Berry & Grand St",Yes,No,40.7151949,-73.9640858,NA,NA,1,NA,"William Sheridan Playground, Brooklyn, NY 11211, USA",NA
445,Willoughby Playground,Tompkins & Willoughby Ave,Yes,No,40.6944871,-73.94692,42.3730923,-84.5416359,1,17.7843452,"Willoughby Playground, Vernon Ave, Brooklyn, NY 11206, USA","Tompkins, MI 49277, USA"
446,Wingate Park,Brooklyn Ave & Rutland Rd,Yes,No,NA,NA,33.0303077,-83.9287213,,NA,"Wingate Park, 600 Kingston Ave, Brooklyn, NY 11203, USA","Brooklyn Ave, Forsyth, GA 31029, USA"
447,Woods Playground,Bergen St & Utica Ave,Yes,No,38.9395996,-77.3781995,40.686145,-73.990862,,5.916138729,"Stratton Woods Playground, Reston, VA 20191, USA",NA
448,Yak Playground,Ave Y btwn Coyle & Batchelder St,Yes,Yes,40.5925244,-73.9365332,NA,NA,1,NA,NA,NA
449,Alley Park,67 Ave & 230 St,Yes,No,35.4474222,-93.7355412,25.9478599,-80.3073243,,127.562183,NA,"67th Ave, Hialeah, FL 33015, USA"
450,Andrews Playground,49 Ave & Vernon Blvd & 5 St,Yes,Not Available,40.7434498,-73.9548102,46.9262788,-101.4914046,1,170.2540544,"Andrews Grove, 49th Ave, Long Island City, NY 11101, USA","49th Ave, New Salem, ND 58563, USA"
451,Alley Pond Park,"Grand Central pkwy, Winchester Blvd, Union Tpke",Yes,No,54.52604,-6.06407,NA,NA,,NA,"Pond Park Rd, Lisburn, Lisburn BT28 3LA, UK",NA
452,Alstyne Playground,Alystine Ave & 102 St,Yes,No,NA,NA,40.7433542,-73.8636818,,NA,NA,"Alstyne Ave, New York, USA"
453,Ampere Playground (PS 64),101 Ave & 82 St,Yes,No,NA,NA,40.687565,-73.834403,,NA,NA,"101st Ave, New York, NY, USA"
454,Annandale Playground,Yellowstone Blvd & 65 Rd & 65 Ave,Yes,Yes,40.7312764,-73.8516467,29.6935712,-95.3616088,1,237.4206205,"Annadale Playground, 64th Rd, Rego Park, NY 11374, USA","Yellowstone Blvd, Houston, TX, USA"
455,Arrow Community Garden,35th St & 36th Ave,Yes,No,32.0094498,-102.0970413,38.4047226,-82.600277,,124.6871264,"Community Ln, Midland, TX 79701, USA","35th St, Catlettsburg, KY 41129, USA"
456,Astoria Heights Playground,"30 Rd, 45 to 46 St",Yes,No,NA,NA,NA,NA,,NA,"Astoria Heights Playground, 30th Rd, Astoria, NY 11103, USA","Street 46, Giza Governorate, Egypt"
457,Athens Sq,29 St & 30 St & 30 Ave & Newtown Ave,Yes,Yes,NA,NA,NA,NA,,NA,"Athens Square, Astoria, NY 11102, USA","29th St, Unionville, MO 63565, USA"
458,Aubondale Playground,170-171 St & 33-35 Ave,Yes,No,NA,NA,NA,NA,,NA,"Auburndale Playground, Flushing, NY 11358, USA","170 171st St, Woodstock, MN 56186, USA"
459,Baisley Pond Park,157 St & 116 Ave,Yes,No,40.6755827,-73.7852922,45.1064033,-96.7980804,,101.965536,"Baisley Pond Park, Baisley Blvd, Jamaica, NY 11434, USA","157th St, South Dakota, USA"
460,Bay Terrace Playground,23 Ave & 212 St,Yes,No,47.54238,-122.6262006,48.0054429,-97.8551628,,11.4705486,"Bay St, Port Orchard, WA 98366, USA","23rd Ave, Niagara, ND 58266, USA"
461,Bayside Fields,"204 St & 29 Ave, Clearview Expressway",Yes,Yes,37.7247016,-75.7236849,44.4267369,-97.516649,,146.0572147,"Field Rd, Onancock, VA 23417, USA","204th St, South Dakota, USA"
462,Bayside Playground,Beach Channel Dr & Seaside Ave,Yes,No,40.5849818,-73.8251811,40.5897085,-73.8148117,1,4.90E-05,"Bayside Playground, Beach Channel Dr, Rockaway Park, NY 11694, USA","Beach Channel Dr, New York, USA"
463,Bellaire Playground,89 Ave & 207 & 208 St,Yes,No,40.7215183,-73.7578984,40.710539,-73.7871156,1,0.000320784,"Bellaire Playground, 208th St, Queens Village, NY 11427, USA","89th Ave, New York, USA"
464,Big Bush Park,61 St & Brooklyn-Queens Expressway,Yes,No,NA,NA,NA,NA,,NA,"Big Bush Park, Woodside, NY 11377, USA","61st St, Superior, WI 54880, USA"
465,Bowne Playground,Union Street & Stanford Ave,Yes,No,NA,NA,NA,NA,,NA,"Bowne Playground, Flushing, NY 11355, USA","N Union Rd, Wisconsin, USA"
466,Breininger park,Braddock Ave & 240 St,Yes,No,NA,NA,NA,NA,,NA,"Breininger Park, Edmore Ave, Jamaica, NY 11426, USA","Braddock Ave, New York, NY, USA"
467,Brookville Park,Conduit Ave & Brookville Blvd & 144th Ave & 233rd St,Yes,No,53.3869358,-6.2014178,39.3334982,-76.6375925,,989.8703859,"Brookville Park, Dublin, Ireland",NA
468,Cabbell Park/Cambria Palyground,121 Ave & 220 St,Yes,No,NA,NA,44.9720313,-96.4146613,,NA,NA,"121st Ave, Marietta, MN 56257, USA"
469,Captain Tilly Park,Highland Ave & Upland Pkwy & Gothic Pkwy & 85 Ave,Yes,No,40.7124413,-73.7988958,36.53264,-119.6289038,1,191.560327,"Captain Tilly Park, Jamaica, NY 11432, USA","Highland Ave, Selma, CA 93662, USA"
470,Captain Mario Fajardo Park,Kissena Blvd & Booth Memorial Ave,Yes,No,NA,NA,40.7413696,-73.8148124,,NA,NA,"Kissena Blvd, New York, USA"
471,Castlewood Playground,Little Neck Pkwy & 72 Ave,Yes,No,40.7493312,-73.7223177,40.7536177,-73.7227354,1,1.79E-06,"Castlewood Playground, 252nd St, Jamaica, NY 11426, USA","Little Neck Pkwy, Floral Park, NY, USA"
472,Challenge Playground,251 St & 63 Ave,Yes,No,40.7567232,-73.7281103,43.7457298,-97.6172678,1,71.40484944,"Challenge Playground, 251st St, Little Neck, NY 11362, USA","251st St, South Dakota, USA"
473,Clement Clark Moore Park,Broadway & 83 St,Yes,No,40.7466119,-74.0043308,41.1115472,-73.8583806,1,0.05326238,"Clement Clarke Moore Park, 195 10 Avenue, New York, NY 10011, USA","Broadway, New York, USA"
474,Clintonville Playground,Clintonville St & 17 Rd & 17 Ave,Yes,No,40.7833263,-73.807903,40.7864387,-73.8098461,1,6.05E-06,"Clintonville Playground, Whitestone, NY 11357, USA","Clintonville St, New York 11357, USA"
475,College Point Park,130th St & 23rd Ave,Yes,No,40.8290126,-77.8428055,45.5074988,-99.9148046,,103.2635432,NA,NA
476,Corona Golf Playground,109 St & 46-47 Ave,Yes,No,40.7474938,-73.8549547,45.8105239,-99.5333357,,130.0104159,"Corona Golf Playground, 46th Ave, Corona, NY 11368, USA","109th St, Eureka, SD 57437, USA"
477,Crocheron Park Field House,34th Ave & 214th Pl & 34th Rd & 214th Ln & 35th Ave & 216th St,Yes,No,NA,NA,40.7543568,-73.8794598,1,NA,NA,"34th Ave, New York, USA"
478,Crowley Playground,57 Ave & 83 St,Yes,No,40.7294578,-73.8799463,37.548291,-99.0500762,1,80.07038159,"Crowley Playground, Queens, NY 11373, USA","57TH Ave, Kiowa Rural, KS, USA"
479,Cunningham Park,210 St & 73 Ave,Yes,Yes,40.7367631,-73.7683784,40.7423761,-95.2234607,1,0.120427377,"Cunningham Park, Grand Central Pkwy, Oakland Gardens, NY 11364, USA","210th St, Iowa, USA"
480,Detective Keith L. Williams Park,106 Ave & 173 St & Liberty Ave & 172 St,Yes,Not Available,NA,NA,42.4644948,-85.641923,,NA,NA,"106th Ave, Plainwell, MI 49080, USA"
481,Ditmars Park Playground,23 Ave to Ditmars Blvd,Yes,No,40.7727441,-73.8976184,NA,NA,1,NA,"Paul Raimonda Playground, 47th St, Queens, NY 11105, USA",NA
482,Dr. Charles R. Drew Memorial Park,Van Wyck Expressway & 116 Ave & 140 St & 115 Ave,Yes,No,NA,NA,NA,NA,,NA,"Doctor Charles R Drew Memorial Park, Jamaica, NY 11436, USA",NA
483,Dutch Kills Playground,"crescent-28 St, 36 Ave & 37 Ave",Yes,No,NA,NA,NA,NA,,NA,NA,NA
484,East Elmhurst Playground,25 Ave & 98 St,Yes,Yes,NA,NA,NA,NA,,NA,NA,"25th Ave, Gulfport, MS 39501, USA"
485,East Springfield Playground,115 Rd between 218 & 219 St,Yes,No,NA,NA,NA,NA,,NA,"East Springfield Playground, 218th St, Cambria Heights, NY 11411, USA","115 Between the Mountains Rd, Newbury, NH 03255, USA"
486,Ederle Comfort Station,"Grand Central pkwy & Whitestone Exwy between 111 St & College Point Blvd, Park Dr E",Yes,Yes,NA,NA,40.7186362,-73.7954966,2,NA,NA,"Grand Central Pkwy, New York, USA"
487,Electric Playground,164 St & South of 65 Ave,Yes,No,40.7360573,-73.8053296,45.0059538,-96.8922357,1,98.57869955,"Electric Playground, Fresh Meadows, NY 11365, USA","164th St, South Dakota, USA"
488,Emerald Playground,14 St between Jewe Ave & 71 Ave,Yes,No,40.7309791,-73.8059729,61.1540538,-149.9542148,1,1555.181233,"Emerald Playground, 71st Ave, Fresh Meadows, NY 11365, USA","Bike path between Caravelle Dr and Jewel Lake Rd, Anchorage, AK 99502, USA"
489,Equity Park,90 St & 88 ave & 89 Ave,Yes,No,40.6913888,-73.8534845,42.7591754,-91.7155762,1,36.93499387,"Equity Park, 88th Ave, Woodhaven, NY 11421, USA","90th St, Iowa, USA"
490,Farm Playground,73 Ave & 195 St & 196 Pl,Yes,No,51.9036395,-2.0424469,40.7381109,-73.7674294,,800.8473434,"Priors Farm Playground, Salamanca Rd, Yorkley Rd, Cheltenham, Gloucestershire GL52 5JZ, UK","73rd Ave, Floral Park, NY 11005, USA"
491,Fisher Pool,32 Ave & 99 St,Yes,No,NA,NA,NA,NA,,NA,NA,NA
492,Flushing Fields,Bayside Ave & 25 Ave & 149 to 150 St,Yes,Not Available,NA,NA,40.7714722,-73.8172937,2,NA,"Westfield Dr, Flushing, MI 48433, USA","Bayside Ave, Flushing, NY 11354, USA"
493,Flushing Meadows Corona Park,Park Drive E & 73 Terrace,Yes,No,40.7397136,-73.840785,40.7251204,-73.8277254,1,0.000190581,"Flushing Meadows Corona Park, Queens, NY 11375, USA","Park Dr E, New York, USA"
494,Flushing Meadows Corona Park,College Point Blvd & Lawrence St,Yes,No,40.7397136,-73.840785,40.7672815,-73.8395189,1,3.49E-05,"Flushing Meadows Corona Park, Queens, NY 11375, USA","College Point Blvd, New York, NY, USA"
495,Flushing Meadows Corona Park,111 St & Corona Ave,Yes,Yes,40.7397136,-73.840785,41.6872618,-87.9243423,1,13.34484937,"Flushing Meadows Corona Park, Queens, NY 11375, USA","111th St, Lemont, IL 60439, USA"
496,Flushing Meadows Corona Park,Grand Central Pkwy & Van Wyck Expressway,Yes,No,40.7397136,-73.840785,40.7186362,-73.7954966,1,0.000954562,"Flushing Meadows Corona Park, Queens, NY 11375, USA","Grand Central Pkwy, New York, USA"
497,Hallets Cove Playground,Hallets Cove & Vernon Blvd,Yes,Not Available,40.7717904,-73.9343288,-37.1966644,144.0833442,1,16998.50108,"Goodwill Park, 30-01 Vernon Blvd, Astoria, NY 11102, USA","Hallets Ln, Yandoit VIC 3461, Australia"
498,Hammel Playground,Rockaway Beach Blvd between beach 84 St & Beach 81 St,Yes,Not Available,NA,NA,40.5831381,-73.8226613,2,NA,NA,"Rockaway Beach Blvd, New York, USA"
499,Harold Schneideman Playground,155 Ave & 83 St,Yes,Yes,NA,NA,41.6400998,-90.5980213,,NA,NA,"155th Ave, Eldridge, IA 52748, USA"
500,Hart Playground,37 Ave & west of 69 St,Yes,No,40.7489054,-73.8972181,41.5505926,-87.2047099,1,10.66844584,"Hart Playground, 37th Ave, Woodside, NY 11377, USA","37th Ave, Portage, IN 46368, USA"
501,Harvey Park,"15 to 20 Ave, east of Whitestone Expressway",Yes,No,44.7868951,-69.7144475,38.6109359,-90.3711983,,127.5752501,"Fire Lane 12, Skowhegan, ME 04976, USA","Whitestone Terrace, St. Louis, MO 63119, USA"
502,Hemon MacNeil Park,East of paved path running north from 119th St,Yes,No,40.7928327,-73.8518567,NA,NA,1,NA,"Hermon A. Macneil Park, College Point, NY 11356, USA",NA
503,Highland Park,"Jamaica Ave & Elton St, Heath Pl & Highland Blvd",Yes,No,NA,NA,NA,NA,,NA,"Highland Park, NJ, USA","Jamaica Ave, Floral Park, NY 11001, USA"
504,Hoffman Park,Hoffman Dr & west of Queens Blvd,Yes,No,42.2048071,-88.2740982,42.2350027,-85.2716026,,0.090662156,"Hoffman Park, Cary, IL 60013, USA","Hoffman Dr, Battle Creek, MI 49015, USA"
505,Hollis Playground,205 St & Hollis Ave,Yes,No,42.3937022,-71.1290087,44.414235,-98.2489349,,54.79670042,"Hollis Park, Cambridge, MA 02140, USA","205th St, South Dakota, USA"
506,Holy Cow Playground,Peck Ave & Harding Blvd,Yes,No,40.741262,-73.776427,40.9852219,-73.6771619,1,0.024216704,"Holy Cow Playground, 175-07 Peck Ave, Fresh Meadows, NY 11365, USA","Peck Ave, Rye, NY 10580, USA"
507,Hoover Playground,Manton St & 83 Ave,Yes,No,40.7120075,-73.8216889,39.9373794,-75.1802915,1,1.052411751,"Hoover - Manton Playgrounds, Manton St, Briarwood, NY 11435, USA","Manton St, Philadelphia, PA 19146, USA"
508,Horace Harding Playground,62 Dr between 97 Pl & 98 St,Yes,Not Available,40.7357639,-73.8567468,33.8631902,-84.4649469,1,72.90563701,"Horace Harding Playground, 62nd Ave, Rego Park, NY 11374, USA","Between the Paces SE, Atlanta, GA 30339, USA"
509,John Golden Park,215 Pl & south of 32 Ave,Yes,Yes,NA,NA,NA,NA,,NA,"John Golden Park, Bayside, NY 11360, USA","215th Pl, Queens, NY, USA"
510,Joseph Austin Playground,Grand Central Pkwy & 164 Pl,Yes,No,NA,NA,NA,NA,,NA,"Joseph Austin Playground, 84th Ave, Jamaica, NY 11432, USA","Grand Central Pkwy, New York, USA"
511,Joseph F. Mafera Park,65 Pl & Catalpa Ave & 68 Ave,Yes,No,NA,NA,NA,NA,,NA,"Joseph F. Mafera Park, Ridgewood, NY 11385, USA","Zielona Gora, Poland"
512,Juniper Valley Park,62nd Ave & 80th St,Yes,Yes,NA,NA,NA,NA,,NA,"S Juniper St, Claremore, OK 74019, USA","62nd Ave, Thermal, CA 92274, USA"
513,K.L. Williams Playground,Liberty Ave & 172-173 St,Yes,No,44.8039831,-68.7592713,39.5994694,-84.8678566,,83.83735288,"Williams Playground, Bangor, ME 04401, USA","Liberty Ave, Liberty, IN 47353, USA"
514,Katzman Playground,Yellowstone Blvd between 68 Ave & 68 Rd,Yes,Not Available,NA,NA,NA,NA,,NA,NA,NA
515,Kennedy Playground,Corp. Kennedy St & 33 Ave,Yes,No,42.2654693,-71.0959707,40.7699431,-73.7793645,,4.013085733,"Kennedy Playground, Boston, MA 02126, USA","Corporal Kennedy St, Queens, NY, USA"
516,Kissena Corridor East,Peck Ave & 188 St,Yes,No,40.7473524,-73.820586,40.9852219,-73.6771619,1,0.034116219,"Kissena Corridor Park, Colden St, Flushing, NY 11355, USA","Peck Ave, Rye, NY 10580, USA"
517,Kissena Park,Rose Ave & Oak Ave,Yes,No,29.4664942,-98.3093558,39.301062,-102.2693832,,38.94515796,"Kissena Park, Converse, TX 78109, USA","Rose Ave, Burlington, CO 80807, USA"
518,Lawrence Virgilio Playground,39 Drive & 54 St,Yes,Not Available,NA,NA,NA,NA,,NA,"Lawrence Virgilio Playground, Woodside, NY 11377, USA","39th Dr, Branford, FL 32008, USA"
519,Liberty Pool,173rd St & 106th Ave,Yes,Yes,NA,NA,NA,NA,,NA,"Pool Rd, Lonsdale, AR 72087, USA","173rd St, South Dakota, USA"
520,Linden Park,104 St & 41 Ave,Yes,No,38.9051265,-94.640237,42.52643,-87.931798,,24.29329363,"Linden, Kansas 66209, USA","104th St, Pleasant Prairie, WI 53158, USA"
521,London Planetree Playground,88 St & Atlantic to 95 Ave,Yes,No,40.6860837,-73.853117,43.829476,-85.7420126,1,37.37146288,"London Planetree Playground, 88-01 Atlantic Ave, Woodhaven, NY 11421, USA",NA
522,Loring Field,north Conduit & 149 Ave,Yes,No,42.736638,-72.3843867,40.6669522,-73.7957487,2,2.92107589,"Loring Field, Winchester, NH 03470, USA","N Conduit Ave, Queens, NY, USA"
523,Lost Battalion Hall,Queens Blvd beetween 62 Ave & 62 Rd,Yes,Not Available,NA,NA,40.7282239,-73.7948516,2,NA,NA,"Queens, NY, USA"
524,Lou Lodati Playground,Skillman Ave & 43 St,Yes,No,NA,NA,40.631055,-73.62462,2,NA,NA,"Skillman Ave, Oceanside, NY 11572, USA"
525,Louis Armstrong Playground,37 Ave between 112 & 113 St,Yes,Not Available,40.7556465,-73.8547709,51.3298101,-0.4139676,1,776.575069,"Hinton Park, 113th St, Queens, NY 11368, USA","37 Between Streets, Cobham, Surrey KT11, UK"
526,Louis Pasteur Park,248 St & 51 Ave,Yes,No,42.3984127,-70.9868147,43.7894496,-97.317357,,36.62675594,"Louis Pasteur Park, Revere, MA 02151, USA","248th St, South Dakota, USA"
527,Maple Playground,Kissena Blvd & Maple Ave,Yes,Yes,40.7559225,-73.8260082,40.7413696,-73.8148124,1,0.000162931,"Maple Playground, Flushing, NY 11355, USA","Kissena Blvd, New York, USA"
528,Marconi Park,109Ave & 155 St,Yes,No,55.2065543,-6.2573012,42.4839997,-86.1205004,,1016.063912,"Marconi Park, Ballycastle, Moyle BT54 6NS, UK","109th Ave, Pullman, MI 49450, USA"
529,Marie Curie Park,211 & Oceana St & 46 Ave,Yes,No,40.7571164,-73.7715039,NA,NA,1,NA,"Marie Curie Park, Bayside, NY 11361, USA",NA
530,Maurice A. Fitzgerald Playground,Atlantic Ave & 106 St,Yes,No,NA,NA,NA,NA,,NA,NA,"Atlantic Ave, Indiana, USA"
531,Maurice Park,Mauric Ave & Borden Ave & 54 Ave & 63 St,Yes,Not Available,45.2864585,0.1311302,33.7393247,-96.5592269,,1116.496491,"Maurice, 16210 Saint-Romain, France","S Maurice Ave, Denison, TX 75020, USA"
532,Michaelis-Bayswater Park,Beach Channel Dr & B 32 St & Dwight Ave & Norton Ave,Yes,Yes,NA,NA,40.5897085,-73.8148117,,NA,NA,"Beach Channel Dr, New York, USA"
533,Montbellier Park,Springfield Blvd & 139 Ave,Yes,No,40.6746737,-73.7564275,40.7073529,-73.7390612,1,0.000567517,"Montbellier Park, Springfield Blvd, Laurelton, NY 11413, USA","Springfield Blvd, New York, USA"
534,Murray Playground,21 St & 45 Ave & 11 St & 45 Rd,Yes,Not Available,40.7472832,-73.9486568,34.4193638,-103.1463857,1,184.7608751,"John F Murray Playground, Long Island City, NY 11101, USA","21st St, Clovis, NM 88101, USA"
535,Nautilus Playground,Merrick & Baisley Blvd,Yes,No,-26.6356688,15.1666955,40.6628795,-73.551516,,5970.606842,"Nautilus Playground, Luderitz, Namibia","Merrick, NY, USA"
536,Noonan Playground,Greenpoint & 47th Ave & 43 St,Yes,No,NA,NA,NA,NA,,NA,"Lance Corporal Thomas P Noonan Playground, Woodside, NY 11377, USA","Greenpoint, Brooklyn, NY, USA"
537,North Rochdale Playground,Baisley Blvd & Bedell St,Yes,No,NA,NA,NA,NA,,NA,NA,NA
538,Nicholas Demutis Playground,102 St & Liberty Ave,Yes,No,NA,NA,NA,NA,,NA,NA,NA
539,Painters Playground,Alderton St from Dieterle to Elwell Crescents,Yes,Not Available,NA,NA,NA,NA,,NA,NA,"Alderton, WA 98372, USA"
540,Playground 62,Yellowstone Blvd between 62 Ave & 62 Rd,Yes,Not Available,53.7766521,-1.6265895,NA,NA,,NA,"62 Playground, Leeds, West Yorkshire LS12, UK",NA
541,Playground 90,Northern Blvd & 90 St,Yes,No,53.7766521,-1.6265895,32.4227473,-86.2748531,,1807.570962,"90 Playground, Leeds, West Yorkshire LS12, UK","Northern Blvd, Montgomery, AL, USA"
542,Playground 75,106 St & 75 Ave,Yes,Not Available,53.7766521,-1.6265895,45.8539288,-99.3768295,,774.448104,"75 Playground, Leeds, West Yorkshire LS12, UK","106th St, South Dakota, USA"
543,Queens Farm Museum,Little Neck Pkwy & Commonwealth Blvd & south of Grand Central Pkwy,Yes,No,12.9746611,77.6028414,40.7536177,-73.7227354,,4203.66663,"Museum Rd, Shanthala Nagar, Ashok Nagar, Bengaluru, Karnataka, India","Little Neck Pkwy, Floral Park, NY, USA"
544,Queensbridge Park,21 St & Bridge Plaza & Vernon Blvd & East River,Yes,Not Available,40.7566953,-73.9484021,34.4193638,-103.1463857,1,185.0373012,"Queensbridge Park, 21st St, Long Island City, NY 11101, USA","21st St, Clovis, NM 88101, USA"
545,Rainey Park,Vernon Blvd & 33 Rd & 34 St & East River,Yes,Not Available,NA,NA,NA,NA,,NA,"Rainey Park, Ballygunge, Kolkata, West Bengal 700019, India","Vernon Blvd, New York, NY, USA"
546,Real Good Park,"LIE, 99 St & 62 Ave",Yes,Yes,NA,NA,40.7393545,-73.7924011,,NA,NA,NA
547,Reiff Playground,Fresh Pond Rd & 63 St & 59 Dr,Yes,Not Available,40.7186569,-73.9016277,40.710981,-73.899709,1,1.47E-05,NA,NA
548,Rochdale Park,Guy Brewer Blvd & 134 Ave,Yes,No,42.1965212,-71.9067881,40.6805308,-73.7808187,,2.841012399,NA,NA
549,Roy Wilkins Recreation Center,se of fence running from 118th Rd to hospital,Yes,Not Available,NA,NA,NA,NA,,NA,NA,NA
550,Rufus King Park,Jamaica Ave & 153 St & 89 Ave & 150 St,Yes,Not Available,40.7036801,-73.8039529,40.7022091,-73.8041576,1,3.01E-07,"Rufus King Park, 150-29 Jamaica Ave, New York, 11435, USA","Jamaica Ave, Floral Park, NY 11001, USA"
551,Russell Sage Playground,68 Ave & Booth to Austin St,Yes,No,40.724354,-73.851407,43.0306261,-85.9566152,1,27.91790394,"Russell Sage Playground, 68-98 Booth St, Forest Hills, NY 11375, USA","68th Ave, Coopersville, MI 49404, USA"
552,Seaside Playground,Rockaway Beach Blvd & B109-B110 St,Yes,Not Available,40.5849818,-73.8251811,40.5831381,-73.8226613,1,4.65E-06,"Bayside Playground, Beach Channel Dr, Rockaway Park, NY 11694, USA","Rockaway Beach Blvd, New York, USA"
553,Smokey Oval,125 St & Atlantic Ave,Yes,No,37.8278412,-77.206694,45.5789743,-99.643324,,173.9093054,"Smokey Rd, Aylett, VA 23009, USA","125th St, South Dakota, USA"
554,Springfield Park,149 Ave & Springfield Blvd & 145 Rd & 148 St,Yes,Not Available,34.410889,-82.6827576,47.8044245,-95.4732497,,171.30991,"Springfield Park, Starr, SC 29684, USA","149th Ave, Gonvick, MN 56644, USA"
555,St. Albans Park,174 St & 113 Ave,Yes,No,-38.183548,144.386953,40.837288,-73.887734,,17248.24824,"St Albans Park VIC, Australia","174 St, Bronx, NY 10460, USA"
556,Tall Oak Playground,64 Ave & 218 st & 219 St,Yes,No,NA,NA,NA,NA,,NA,NA,"64th Ave, Michigan, USA"
557,Triborough Bridge Playground A,Hoyt Ave & 19 to 21 St,Yes,No,NA,NA,NA,NA,,NA,NA,"Hoyt Ave, Everett, WA, USA"
558,Triborough Bridge Playground B,Hoyt Ave & 21 to 23 St,Yes,No,NA,NA,47.9832719,-122.2099159,,NA,NA,"Hoyt Ave, Everett, WA, USA"
559,Union Playground,Union St & 31 Rd,Yes,No,42.3742664,-71.0654694,42.8212715,-89.3010356,,8.151391093,"Rutherford Union Playground, Boston, MA 02129, USA","N Union Rd, Wisconsin, USA"
560,Vleigh Place Playground,Vleigh Pl & 141 St,Yes,No,40.7181533,-73.8204022,40.72314,-73.8204868,1,4.22E-07,"Judge Moses Weinstein Playground, Union Turnpike, Flushing, NY 11367, USA","Vleigh Pl, Flushing, NY 11367, USA"
561,Vleigh Playground,70 Rd to 71 Ave,Yes,Yes,40.7298704,-73.8159908,23.0599167,113.1020109,1,3302.832436,"Vleigh Playground, 70th Rd, Flushing, NY 11367, USA","71 Le Cheng Er Lu Nan, Nanhai Qu, Foshan Shi, Guangdong Sheng, China"
